{"type":"FeatureCollection","features":[{"type":"Feature","geometry":{"type":"Point","coordinates":[-0.353906,49.17393]},"properties":{"stop_id":"COM_vauc02_1","stop_code":null,"stop_name":"Vaucelles","stop_desc":null,"zone_id":null,"stop_url":null,"location_type":"1","parent_station":null,"stop_timezone":null,"wheelchair_boarding":"2"}},{"type":"Feature","geometry":{"type":"Point","coordinates":[-0.264546,49.188713]},"properties":{"stop_id":"COM_egcu01","stop_code":null,"stop_name":"Cuverville Eglise","stop_desc":null,"zone_id":null,"stop_url":null,"location_type":"1","parent_station":null,"stop_timezone":null,"wheelchair_boarding":"2"}},{"type":"Feature","geometry":{"type":"Point","coordinates":[-0.326572,49.15709]},"properties":{"stop_id":"COM_indu01_1","stop_code":null,"stop_name":"Industrie","stop_desc":null,"zone_id":null,"stop_url":null,"location_type":"1","parent_station":null,"stop_timezone":null,"wheelchair_boarding":"2"}},{"type":"Feature","geometry":{"type":"Point","coordinates":[-0.385801,49.183807]},"properties":{"stop_id":"COM_resa02","stop_code":null,"stop_name":"Sanchez","stop_desc":null,"zone_id":null,"stop_url":null,"location_type":"1","parent_station":null,"stop_timezone":null,"wheelchair_boarding":"2"}},{"type":"Feature","geometry":{"type":"Point","coordinates":[-0.354144,49.162083]},"properties":{"stop_id":"COM_rofr02","stop_code":null,"stop_name":"Rostand Fresnel","stop_desc":null,"zone_id":null,"stop_url":null,"location_type":"1","parent_station":null,"stop_timezone":null,"wheelchair_boarding":"2"}},{"type":"Feature","geometry":{"type":"Point","coordinates":[-0.326868,49.24065]},"properties":{"stop_id":"ARCOM@BIE020","stop_code":null,"stop_name":"Clos Bosquin","stop_desc":null,"zone_id":null,"stop_url":null,"location_type":"1","parent_station":null,"stop_timezone":null,"wheelchair_boarding":"2"}},{"type":"Feature","geometry":{"type":"Point","coordinates":[-0.342829,49.161068]},"properties":{"stop_id":"COM_libt21","stop_code":null,"stop_name":"Libert\u00e9","stop_desc":null,"zone_id":null,"stop_url":null,"location_type":"1","parent_station":null,"stop_timezone":null,"wheelchair_boarding":"2"}},{"type":"Feature","geometry":{"type":"Point","coordinates":[-0.30324,49.185635]},"properties":{"stop_id":"COM_mifa01","stop_code":null,"stop_name":"Michel Farr\u00e9","stop_desc":null,"zone_id":null,"stop_url":null,"location_type":"1","parent_station":null,"stop_timezone":null,"wheelchair_boarding":"2"}},{"type":"Feature","geometry":{"type":"Point","coordinates":[-0.392609,49.18438]},"properties":{"stop_id":"COM_bepa02","stop_code":null,"stop_name":"Bernard Palissy","stop_desc":null,"zone_id":null,"stop_url":null,"location_type":"1","parent_station":null,"stop_timezone":null,"wheelchair_boarding":"2"}},{"type":"Feature","geometry":{"type":"Point","coordinates":[-0.377981,49.173862]},"properties":{"stop_id":"COM_stou","stop_code":null,"stop_name":"Saint-Ouen","stop_desc":null,"zone_id":null,"stop_url":null,"location_type":"1","parent_station":null,"stop_timezone":null,"wheelchair_boarding":"2"}},{"type":"Feature","geometry":{"type":"Point","coordinates":[-0.400122,49.192616]},"properties":{"stop_id":"COM_berr01","stop_code":null,"stop_name":"Berry","stop_desc":null,"zone_id":null,"stop_url":null,"location_type":"1","parent_station":null,"stop_timezone":null,"wheelchair_boarding":"2"}},{"type":"Feature","geometry":{"type":"Point","coordinates":[-0.375231,49.184258]},"properties":{"stop_id":"COM_stni01","stop_code":null,"stop_name":"Saint-Nicolas","stop_desc":null,"zone_id":null,"stop_url":null,"location_type":"1","parent_station":null,"stop_timezone":null,"wheelchair_boarding":"2"}},{"type":"Feature","geometry":{"type":"Point","coordinates":[-0.301442,49.200382]},"properties":{"stop_id":"COM_euva02","stop_code":null,"stop_name":"Eug\u00e8ne Varlin","stop_desc":null,"zone_id":null,"stop_url":null,"location_type":"1","parent_station":null,"stop_timezone":null,"wheelchair_boarding":"2"}},{"type":"Feature","geometry":{"type":"Point","coordinates":[-0.41163,49.23859]},"properties":{"stop_id":"COM_vice02_1","stop_code":null,"stop_name":"Cerisiers","stop_desc":null,"zone_id":null,"stop_url":null,"location_type":"1","parent_station":null,"stop_timezone":null,"wheelchair_boarding":"2"}},{"type":"Feature","geometry":{"type":"Point","coordinates":[-0.295192,49.207336]},"properties":{"stop_id":"COM_rega01","stop_code":null,"stop_name":"Egalit\u00e9","stop_desc":null,"zone_id":null,"stop_url":null,"location_type":"1","parent_station":null,"stop_timezone":null,"wheelchair_boarding":"2"}},{"type":"Feature","geometry":{"type":"Point","coordinates":[-0.365788,49.17967]},"properties":{"stop_id":"COM_ciga02","stop_code":null,"stop_name":"Espace Gardin","stop_desc":null,"zone_id":null,"stop_url":null,"location_type":"1","parent_station":null,"stop_timezone":null,"wheelchair_boarding":"2"}},{"type":"Feature","geometry":{"type":"Point","coordinates":[-0.382958,49.18514]},"properties":{"stop_id":"1150272","stop_code":null,"stop_name":"Poilus d'Orient","stop_desc":null,"zone_id":null,"stop_url":null,"location_type":"1","parent_station":null,"stop_timezone":null,"wheelchair_boarding":"2"}},{"type":"Feature","geometry":{"type":"Point","coordinates":[-0.349961,49.163517]},"properties":{"stop_id":"COM_avia01","stop_code":null,"stop_name":"Aviation","stop_desc":null,"zone_id":null,"stop_url":null,"location_type":"1","parent_station":null,"stop_timezone":null,"wheelchair_boarding":"2"}},{"type":"Feature","geometry":{"type":"Point","coordinates":[-0.332843,49.164894]},"properties":{"stop_id":"COM_catt02_1","stop_code":null,"stop_name":"Cattehoulte","stop_desc":null,"zone_id":null,"stop_url":null,"location_type":"1","parent_station":null,"stop_timezone":null,"wheelchair_boarding":"2"}},{"type":"Feature","geometry":{"type":"Point","coordinates":[-0.306943,49.18061]},"properties":{"stop_id":"COM_grpl01","stop_code":null,"stop_name":"Grande Rue","stop_desc":null,"zone_id":null,"stop_url":null,"location_type":"1","parent_station":null,"stop_timezone":null,"wheelchair_boarding":"2"}},{"type":"Feature","geometry":{"type":"Point","coordinates":[-0.424328,49.14794]},"properties":{"stop_id":"COM_lmar01","stop_code":null,"stop_name":"Les Marronniers","stop_desc":null,"zone_id":null,"stop_url":null,"location_type":"1","parent_station":null,"stop_timezone":null,"wheelchair_boarding":"2"}},{"type":"Feature","geometry":{"type":"Point","coordinates":[-0.434038,49.156303]},"properties":{"stop_id":"COM_rocr01","stop_code":null,"stop_name":"Le Rocreuil","stop_desc":null,"zone_id":null,"stop_url":null,"location_type":"1","parent_station":null,"stop_timezone":null,"wheelchair_boarding":"2"}},{"type":"Feature","geometry":{"type":"Point","coordinates":[-0.493068,49.143536]},"properties":{"stop_id":"COM_lbru01","stop_code":null,"stop_name":"La Bruy\u00e8re","stop_desc":null,"zone_id":null,"stop_url":null,"location_type":"1","parent_station":null,"stop_timezone":null,"wheelchair_boarding":"2"}},{"type":"Feature","geometry":{"type":"Point","coordinates":[-0.358421,49.18068]},"properties":{"stop_id":"COM_sj02","stop_code":null,"stop_name":"Saint-Jean Eglise","stop_desc":null,"zone_id":null,"stop_url":null,"location_type":"1","parent_station":null,"stop_timezone":null,"wheelchair_boarding":"2"}},{"type":"Feature","geometry":{"type":"Point","coordinates":[-0.335719,49.173943]},"properties":{"stop_id":"COM_parp01_1","stop_code":null,"stop_name":"Pasteur","stop_desc":null,"zone_id":null,"stop_url":null,"location_type":"1","parent_station":null,"stop_timezone":null,"wheelchair_boarding":"2"}},{"type":"Feature","geometry":{"type":"Point","coordinates":[-0.356821,49.13962]},"properties":{"stop_id":"COM_robl03","stop_code":null,"stop_name":"Roche Blanche","stop_desc":null,"zone_id":null,"stop_url":null,"location_type":"1","parent_station":null,"stop_timezone":null,"wheelchair_boarding":"2"}},{"type":"Feature","geometry":{"type":"Point","coordinates":[-0.313749,49.166428]},"properties":{"stop_id":"COM_robo02","stop_code":null,"stop_name":"Robert Bosch","stop_desc":null,"zone_id":null,"stop_url":null,"location_type":"1","parent_station":null,"stop_timezone":null,"wheelchair_boarding":"2"}},{"type":"Feature","geometry":{"type":"Point","coordinates":[-0.382506,49.143463]},"properties":{"stop_id":"COM_carr01","stop_code":null,"stop_name":"Carrelettes","stop_desc":null,"zone_id":null,"stop_url":null,"location_type":"1","parent_station":null,"stop_timezone":null,"wheelchair_boarding":"2"}},{"type":"Feature","geometry":{"type":"Point","coordinates":[-0.380231,49.145405]},"properties":{"stop_id":"COM_besi01","stop_code":null,"stop_name":"Beau Site","stop_desc":null,"zone_id":null,"stop_url":null,"location_type":"1","parent_station":null,"stop_timezone":null,"wheelchair_boarding":"2"}},{"type":"Feature","geometry":{"type":"Point","coordinates":[-0.274866,49.182587]},"properties":{"stop_id":"COM_ccgi01_1","stop_code":null,"stop_name":"Civisme","stop_desc":null,"zone_id":null,"stop_url":null,"location_type":"1","parent_station":null,"stop_timezone":null,"wheelchair_boarding":"2"}},{"type":"Feature","geometry":{"type":"Point","coordinates":[-0.329071,49.177307]},"properties":{"stop_id":"COM_mape02","stop_code":null,"stop_name":"Maison du Peuple","stop_desc":null,"zone_id":null,"stop_url":null,"location_type":"1","parent_station":null,"stop_timezone":null,"wheelchair_boarding":"2"}},{"type":"Feature","geometry":{"type":"Point","coordinates":[-0.27042,49.18463]},"properties":{"stop_id":"COM_degm03_1","stop_code":null,"stop_name":"Grandes Murailles","stop_desc":null,"zone_id":null,"stop_url":null,"location_type":"1","parent_station":null,"stop_timezone":null,"wheelchair_boarding":"2"}},{"type":"Feature","geometry":{"type":"Point","coordinates":[-0.317327,49.17959]},"properties":{"stop_id":"COM_repa11","stop_code":null,"stop_name":"R\u00e9sidence du Parc","stop_desc":null,"zone_id":null,"stop_url":null,"location_type":"1","parent_station":null,"stop_timezone":null,"wheelchair_boarding":"2"}},{"type":"Feature","geometry":{"type":"Point","coordinates":[-0.332908,49.16007]},"properties":{"stop_id":"COM_pogr02","stop_code":null,"stop_name":"Pommier Gris","stop_desc":null,"zone_id":null,"stop_url":null,"location_type":"1","parent_station":null,"stop_timezone":null,"wheelchair_boarding":"2"}},{"type":"Feature","geometry":{"type":"Point","coordinates":[-0.413477,49.16658]},"properties":{"stop_id":"1150076","stop_code":null,"stop_name":"Bretteville \u00c9glise","stop_desc":null,"zone_id":null,"stop_url":null,"location_type":"1","parent_station":null,"stop_timezone":null,"wheelchair_boarding":"2"}},{"type":"Feature","geometry":{"type":"Point","coordinates":[-0.308917,49.158173]},"properties":{"stop_id":"COM_lumi","stop_code":null,"stop_name":"Lumi\u00e8re","stop_desc":null,"zone_id":null,"stop_url":null,"location_type":"1","parent_station":null,"stop_timezone":null,"wheelchair_boarding":"2"}},{"type":"Feature","geometry":{"type":"Point","coordinates":[-0.354569,49.187397]},"properties":{"stop_id":"COM_abda11","stop_code":null,"stop_name":"Abbaye aux Dames","stop_desc":null,"zone_id":null,"stop_url":null,"location_type":"1","parent_station":null,"stop_timezone":null,"wheelchair_boarding":"2"}},{"type":"Feature","geometry":{"type":"Point","coordinates":[-0.301422,49.1524]},"properties":{"stop_id":"COM_newt02","stop_code":null,"stop_name":"Newton","stop_desc":null,"zone_id":null,"stop_url":null,"location_type":"1","parent_station":null,"stop_timezone":null,"wheelchair_boarding":"2"}},{"type":"Feature","geometry":{"type":"Point","coordinates":[-0.324656,49.165115]},"properties":{"stop_id":"COM_19ma02","stop_code":null,"stop_name":"19 Mars","stop_desc":null,"zone_id":null,"stop_url":null,"location_type":"1","parent_station":null,"stop_timezone":null,"wheelchair_boarding":"2"}},{"type":"Feature","geometry":{"type":"Point","coordinates":[-0.300395,49.15479]},"properties":{"stop_id":"COM_niep02","stop_code":null,"stop_name":"Niepce","stop_desc":null,"zone_id":null,"stop_url":null,"location_type":"1","parent_station":null,"stop_timezone":null,"wheelchair_boarding":"2"}},{"type":"Feature","geometry":{"type":"Point","coordinates":[-0.329926,49.168774]},"properties":{"stop_id":"COM_jeme02_1","stop_code":null,"stop_name":"Jean Mermoz","stop_desc":null,"zone_id":null,"stop_url":null,"location_type":"1","parent_station":null,"stop_timezone":null,"wheelchair_boarding":"2"}},{"type":"Feature","geometry":{"type":"Point","coordinates":[-0.330534,49.20376]},"properties":{"stop_id":"COM_stcl31","stop_code":null,"stop_name":"H\u00e9rouville Saint-Clair","stop_desc":null,"zone_id":null,"stop_url":null,"location_type":"1","parent_station":null,"stop_timezone":null,"wheelchair_boarding":"2"}},{"type":"Feature","geometry":{"type":"Point","coordinates":[-0.34534,49.19545]},"properties":{"stop_id":"COM_vafo02_1","stop_code":null,"stop_name":"Foyer","stop_desc":null,"zone_id":null,"stop_url":null,"location_type":"1","parent_station":null,"stop_timezone":null,"wheelchair_boarding":"2"}},{"type":"Feature","geometry":{"type":"Point","coordinates":[-0.341325,49.173527]},"properties":{"stop_id":"COM_pigr","stop_code":null,"stop_name":"Pierre Gringoire","stop_desc":null,"zone_id":null,"stop_url":null,"location_type":"1","parent_station":null,"stop_timezone":null,"wheelchair_boarding":"2"}},{"type":"Feature","geometry":{"type":"Point","coordinates":[-0.390759,49.17758]},"properties":{"stop_id":"COM_stcme02","stop_code":null,"stop_name":"Stade Claude Mercier","stop_desc":null,"zone_id":null,"stop_url":null,"location_type":"1","parent_station":null,"stop_timezone":null,"wheelchair_boarding":"2"}},{"type":"Feature","geometry":{"type":"Point","coordinates":[-0.353939,49.17804]},"properties":{"stop_id":"COM_quju11","stop_code":null,"stop_name":"Quai de Juillet","stop_desc":null,"zone_id":null,"stop_url":null,"location_type":"1","parent_station":null,"stop_timezone":null,"wheelchair_boarding":"2"}},{"type":"Feature","geometry":{"type":"Point","coordinates":[-0.382576,49.19856]},"properties":{"stop_id":"COM_memo02","stop_code":null,"stop_name":"M\u00e9morial","stop_desc":null,"zone_id":null,"stop_url":null,"location_type":"1","parent_station":null,"stop_timezone":null,"wheelchair_boarding":"2"}},{"type":"Feature","geometry":{"type":"Point","coordinates":[-0.395035,49.201443]},"properties":{"stop_id":"COM_unic01","stop_code":null,"stop_name":"Unicit\u00e9","stop_desc":null,"zone_id":null,"stop_url":null,"location_type":"1","parent_station":null,"stop_timezone":null,"wheelchair_boarding":"2"}},{"type":"Feature","geometry":{"type":"Point","coordinates":[-0.366462,49.18688]},"properties":{"stop_id":"COM_plma","stop_code":null,"stop_name":"Place de la Mare","stop_desc":null,"zone_id":null,"stop_url":null,"location_type":"1","parent_station":null,"stop_timezone":null,"wheelchair_boarding":"2"}},{"type":"Feature","geometry":{"type":"Point","coordinates":[-0.339576,49.185513]},"properties":{"stop_id":"COM_heke01_1","stop_code":null,"stop_name":"H\u00e9l\u00e8ne Keller","stop_desc":null,"zone_id":null,"stop_url":null,"location_type":"1","parent_station":null,"stop_timezone":null,"wheelchair_boarding":"2"}},{"type":"Feature","geometry":{"type":"Point","coordinates":[-0.400538,49.194405]},"properties":{"stop_id":"COM_bourgu02","stop_code":null,"stop_name":"Bourgogne","stop_desc":null,"zone_id":null,"stop_url":null,"location_type":"1","parent_station":null,"stop_timezone":null,"wheelchair_boarding":"2"}},{"type":"Feature","geometry":{"type":"Point","coordinates":[-0.353958,49.183315]},"properties":{"stop_id":"COM_qulo02","stop_code":null,"stop_name":"Quai de la Londe","stop_desc":null,"zone_id":null,"stop_url":null,"location_type":"1","parent_station":null,"stop_timezone":null,"wheelchair_boarding":"2"}},{"type":"Feature","geometry":{"type":"Point","coordinates":[-0.392417,49.202824]},"properties":{"stop_id":"COM_deba11","stop_code":null,"stop_name":"D\u00e9barquement","stop_desc":null,"zone_id":null,"stop_url":null,"location_type":"1","parent_station":null,"stop_timezone":null,"wheelchair_boarding":"2"}},{"type":"Feature","geometry":{"type":"Point","coordinates":[-0.358981,49.203854]},"properties":{"stop_id":"COM_chu11","stop_code":null,"stop_name":"CHU","stop_desc":null,"zone_id":null,"stop_url":null,"location_type":"1","parent_station":null,"stop_timezone":null,"wheelchair_boarding":"0"}},{"type":"Feature","geometry":{"type":"Point","coordinates":[-0.388732,49.19811]},"properties":{"stop_id":"COM_coao02","stop_code":null,"stop_name":"Colline aux Oiseaux","stop_desc":null,"zone_id":null,"stop_url":null,"location_type":"1","parent_station":null,"stop_timezone":null,"wheelchair_boarding":"2"}},{"type":"Feature","geometry":{"type":"Point","coordinates":[-0.34891,49.195667]},"properties":{"stop_id":"COM_pers01_1","stop_code":null,"stop_name":"Perspectives","stop_desc":null,"zone_id":null,"stop_url":null,"location_type":"1","parent_station":null,"stop_timezone":null,"wheelchair_boarding":"2"}},{"type":"Feature","geometry":{"type":"Point","coordinates":[-0.344377,49.185265]},"properties":{"stop_id":"COM_vefo02_1","stop_code":null,"stop_name":"Fouquet","stop_desc":null,"zone_id":null,"stop_url":null,"location_type":"1","parent_station":null,"stop_timezone":null,"wheelchair_boarding":"2"}},{"type":"Feature","geometry":{"type":"Point","coordinates":[-0.355423,49.204433]},"properties":{"stop_id":"COM_bacl01_2","stop_code":null,"stop_name":"Baclesse","stop_desc":null,"zone_id":null,"stop_url":null,"location_type":"1","parent_station":null,"stop_timezone":null,"wheelchair_boarding":"2"}},{"type":"Feature","geometry":{"type":"Point","coordinates":[-0.37981,49.186047]},"properties":{"stop_id":"COM_thfr01_1","stop_code":null,"stop_name":"Thibout de la Fresnaye","stop_desc":null,"zone_id":null,"stop_url":null,"location_type":"1","parent_station":null,"stop_timezone":null,"wheelchair_boarding":"2"}},{"type":"Feature","geometry":{"type":"Point","coordinates":[-0.399046,49.181263]},"properties":{"stop_id":"COM_pomp02","stop_code":null,"stop_name":"Pompidou","stop_desc":null,"zone_id":null,"stop_url":null,"location_type":"1","parent_station":null,"stop_timezone":null,"wheelchair_boarding":"2"}},{"type":"Feature","geometry":{"type":"Point","coordinates":[-0.302194,49.232834]},"properties":{"stop_id":"COM_emzo01","stop_code":null,"stop_name":"Emile Zola","stop_desc":null,"zone_id":null,"stop_url":null,"location_type":"1","parent_station":null,"stop_timezone":null,"wheelchair_boarding":"2"}},{"type":"Feature","geometry":{"type":"Point","coordinates":[-0.347781,49.191643]},"properties":{"stop_id":"COM_dovi01_1","stop_code":null,"stop_name":"Docteur Vincent","stop_desc":null,"zone_id":null,"stop_url":null,"location_type":"1","parent_station":null,"stop_timezone":null,"wheelchair_boarding":"2"}},{"type":"Feature","geometry":{"type":"Point","coordinates":[-0.349058,49.181355]},"properties":{"stop_id":"COM_biat12","stop_code":null,"stop_name":"Presqu'\u00cele","stop_desc":null,"zone_id":null,"stop_url":null,"location_type":"1","parent_station":null,"stop_timezone":null,"wheelchair_boarding":"2"}},{"type":"Feature","geometry":{"type":"Point","coordinates":[-0.309645,49.226105]},"properties":{"stop_id":"COM_feui11","stop_code":null,"stop_name":"Feuillantines","stop_desc":null,"zone_id":null,"stop_url":null,"location_type":"1","parent_station":null,"stop_timezone":null,"wheelchair_boarding":"2"}},{"type":"Feature","geometry":{"type":"Point","coordinates":[-0.343758,49.195404]},"properties":{"stop_id":"COM_geva01_1","stop_code":null,"stop_name":"Vanier","stop_desc":null,"zone_id":null,"stop_url":null,"location_type":"1","parent_station":null,"stop_timezone":null,"wheelchair_boarding":"2"}},{"type":"Feature","geometry":{"type":"Point","coordinates":[-0.352655,49.19677]},"properties":{"stop_id":"COM_bres02","stop_code":null,"stop_name":"Brest","stop_desc":null,"zone_id":null,"stop_url":null,"location_type":"1","parent_station":null,"stop_timezone":null,"wheelchair_boarding":"2"}},{"type":"Feature","geometry":{"type":"Point","coordinates":[-0.343099,49.193775]},"properties":{"stop_id":"COM_rher02_1","stop_code":null,"stop_name":"La Hache","stop_desc":null,"zone_id":null,"stop_url":null,"location_type":"1","parent_station":null,"stop_timezone":null,"wheelchair_boarding":"2"}},{"type":"Feature","geometry":{"type":"Point","coordinates":[-0.398759,49.19419]},"properties":{"stop_id":"COM_toura12","stop_code":null,"stop_name":"Touraine","stop_desc":null,"zone_id":null,"stop_url":null,"location_type":"1","parent_station":null,"stop_timezone":null,"wheelchair_boarding":"2"}},{"type":"Feature","geometry":{"type":"Point","coordinates":[-0.368593,49.227726]},"properties":{"stop_id":"COM_zavil","stop_code":null,"stop_name":"ZA au Village","stop_desc":null,"zone_id":null,"stop_url":null,"location_type":"1","parent_station":null,"stop_timezone":null,"wheelchair_boarding":"2"}},{"type":"Feature","geometry":{"type":"Point","coordinates":[-0.377523,49.209667]},"properties":{"stop_id":"COM_rmal02","stop_code":null,"stop_name":"Rue de Malon","stop_desc":null,"zone_id":null,"stop_url":null,"location_type":"1","parent_station":null,"stop_timezone":null,"wheelchair_boarding":"2"}},{"type":"Feature","geometry":{"type":"Point","coordinates":[-0.342733,49.197693]},"properties":{"stop_id":"COM_monc01_1","stop_code":null,"stop_name":"Montcalm","stop_desc":null,"zone_id":null,"stop_url":null,"location_type":"1","parent_station":null,"stop_timezone":null,"wheelchair_boarding":"2"}},{"type":"Feature","geometry":{"type":"Point","coordinates":[-0.386199,49.19443]},"properties":{"stop_id":"COM_pich02_1","stop_code":null,"stop_name":"Chemin Vert Piscine","stop_desc":null,"zone_id":null,"stop_url":null,"location_type":"1","parent_station":null,"stop_timezone":null,"wheelchair_boarding":"2"}},{"type":"Feature","geometry":{"type":"Point","coordinates":[-0.326773,49.19466]},"properties":{"stop_id":"COM_jean01","stop_code":null,"stop_name":"Jean XXIII","stop_desc":null,"zone_id":null,"stop_url":null,"location_type":"1","parent_station":null,"stop_timezone":null,"wheelchair_boarding":"2"}},{"type":"Feature","geometry":{"type":"Point","coordinates":[-0.40576,49.189163]},"properties":{"stop_id":"COM_gruc01","stop_code":null,"stop_name":"Saint-Norbert","stop_desc":null,"zone_id":null,"stop_url":null,"location_type":"1","parent_station":null,"stop_timezone":null,"wheelchair_boarding":"2"}},{"type":"Feature","geometry":{"type":"Point","coordinates":[-0.351681,49.188168]},"properties":{"stop_id":"COM_clbe01_1","stop_code":null,"stop_name":"Clos Beaumois","stop_desc":null,"zone_id":null,"stop_url":null,"location_type":"1","parent_station":null,"stop_timezone":null,"wheelchair_boarding":"2"}},{"type":"Feature","geometry":{"type":"Point","coordinates":[-0.357868,49.162514]},"properties":{"stop_id":"ARCOM@C302","stop_code":null,"stop_name":"Lyc\u00e9e Fresnel","stop_desc":null,"zone_id":null,"stop_url":null,"location_type":"1","parent_station":null,"stop_timezone":null,"wheelchair_boarding":"2"}},{"type":"Feature","geometry":{"type":"Point","coordinates":[-0.326141,49.196487]},"properties":{"stop_id":"COM_ablu01_1","stop_code":null,"stop_name":"Abb\u00e9 Lucas","stop_desc":null,"zone_id":null,"stop_url":null,"location_type":"1","parent_station":null,"stop_timezone":null,"wheelchair_boarding":"2"}},{"type":"Feature","geometry":{"type":"Point","coordinates":[-0.339464,49.159603]},"properties":{"stop_id":"COM_rgen01_1","stop_code":null,"stop_name":"Gen\u00e8ve","stop_desc":null,"zone_id":null,"stop_url":null,"location_type":"1","parent_station":null,"stop_timezone":null,"wheelchair_boarding":"2"}},{"type":"Feature","geometry":{"type":"Point","coordinates":[-0.351237,49.16719]},"properties":{"stop_id":"COM_fala01","stop_code":null,"stop_name":"Falaise","stop_desc":null,"zone_id":null,"stop_url":null,"location_type":"1","parent_station":null,"stop_timezone":null,"wheelchair_boarding":"2"}},{"type":"Feature","geometry":{"type":"Point","coordinates":[-0.359075,49.164307]},"properties":{"stop_id":"COM_arma02","stop_code":null,"stop_name":"Armand Marie","stop_desc":null,"zone_id":null,"stop_url":null,"location_type":"1","parent_station":null,"stop_timezone":null,"wheelchair_boarding":"2"}},{"type":"Feature","geometry":{"type":"Point","coordinates":[-0.271824,49.192135]},"properties":{"stop_id":"COM_chpi","stop_code":null,"stop_name":"Champ Picot","stop_desc":null,"zone_id":null,"stop_url":null,"location_type":"1","parent_station":null,"stop_timezone":null,"wheelchair_boarding":"2"}},{"type":"Feature","geometry":{"type":"Point","coordinates":[-0.358674,49.170834]},"properties":{"stop_id":"COM_cari01","stop_code":null,"stop_name":"Carri\u00e8res","stop_desc":null,"zone_id":null,"stop_url":null,"location_type":"1","parent_station":null,"stop_timezone":null,"wheelchair_boarding":"2"}},{"type":"Feature","geometry":{"type":"Point","coordinates":[-0.323593,49.149593]},"properties":{"stop_id":"COM_corf01","stop_code":null,"stop_name":"Fossettes","stop_desc":null,"zone_id":null,"stop_url":null,"location_type":"1","parent_station":null,"stop_timezone":null,"wheelchair_boarding":"2"}},{"type":"Feature","geometry":{"type":"Point","coordinates":[-0.343214,49.162]},"properties":{"stop_id":"COM_chegu02","stop_code":null,"stop_name":"Guerini\u00e8re","stop_desc":null,"zone_id":null,"stop_url":null,"location_type":"1","parent_station":null,"stop_timezone":null,"wheelchair_boarding":"2"}},{"type":"Feature","geometry":{"type":"Point","coordinates":[-0.329598,49.17386]},"properties":{"stop_id":"COM_rtro01","stop_code":null,"stop_name":"Route de Rouen","stop_desc":null,"zone_id":null,"stop_url":null,"location_type":"1","parent_station":null,"stop_timezone":null,"wheelchair_boarding":"2"}},{"type":"Feature","geometry":{"type":"Point","coordinates":[-0.410347,49.19453]},"properties":{"stop_id":"COM_crem02_1","stop_code":null,"stop_name":"Cr\u00e9matorium","stop_desc":null,"zone_id":null,"stop_url":null,"location_type":"1","parent_station":null,"stop_timezone":null,"wheelchair_boarding":"2"}},{"type":"Feature","geometry":{"type":"Point","coordinates":[-0.400731,49.190132]},"properties":{"stop_id":"COM_isig02","stop_code":null,"stop_name":"Isigny","stop_desc":null,"zone_id":null,"stop_url":null,"location_type":"1","parent_station":null,"stop_timezone":null,"wheelchair_boarding":"2"}},{"type":"Feature","geometry":{"type":"Point","coordinates":[-0.389998,49.1837]},"properties":{"stop_id":"COM_cste01","stop_code":null,"stop_name":"Calvaire Saint-Etienne","stop_desc":null,"zone_id":null,"stop_url":null,"location_type":"1","parent_station":null,"stop_timezone":null,"wheelchair_boarding":"2"}},{"type":"Feature","geometry":{"type":"Point","coordinates":[-0.355238,49.214615]},"properties":{"stop_id":"COM_dubn01_1","stop_code":null,"stop_name":"Dubna","stop_desc":null,"zone_id":null,"stop_url":null,"location_type":"1","parent_station":null,"stop_timezone":null,"wheelchair_boarding":"2"}},{"type":"Feature","geometry":{"type":"Point","coordinates":[-0.305442,49.177544]},"properties":{"stop_id":"COM_bocl01_1","stop_code":null,"stop_name":"Bois Claquet","stop_desc":null,"zone_id":null,"stop_url":null,"location_type":"1","parent_station":null,"stop_timezone":null,"wheelchair_boarding":"2"}},{"type":"Feature","geometry":{"type":"Point","coordinates":[-0.26849,49.193207]},"properties":{"stop_id":"COM_lese01","stop_code":null,"stop_name":"Les Semeurs","stop_desc":null,"zone_id":null,"stop_url":null,"location_type":"1","parent_station":null,"stop_timezone":null,"wheelchair_boarding":"2"}},{"type":"Feature","geometry":{"type":"Point","coordinates":[-0.408385,49.199333]},"properties":{"stop_id":"COM_chan02_1","stop_code":null,"stop_name":"Chanterie","stop_desc":null,"zone_id":null,"stop_url":null,"location_type":"1","parent_station":null,"stop_timezone":null,"wheelchair_boarding":"2"}},{"type":"Feature","geometry":{"type":"Point","coordinates":[-0.326091,49.173164]},"properties":{"stop_id":"1150749","stop_code":null,"stop_name":"Charmettes","stop_desc":null,"zone_id":null,"stop_url":null,"location_type":"1","parent_station":null,"stop_timezone":null,"wheelchair_boarding":"2"}},{"type":"Feature","geometry":{"type":"Point","coordinates":[-0.270146,49.17821]},"properties":{"stop_id":"COM_demou02_1","stop_code":null,"stop_name":"D\u00e9mouville Mairie","stop_desc":null,"zone_id":null,"stop_url":null,"location_type":"1","parent_station":null,"stop_timezone":null,"wheelchair_boarding":"2"}},{"type":"Feature","geometry":{"type":"Point","coordinates":[-0.312533,49.217003]},"properties":{"stop_id":"COM_orna01_1","stop_code":null,"stop_name":"Ornavik","stop_desc":null,"zone_id":null,"stop_url":null,"location_type":"1","parent_station":null,"stop_timezone":null,"wheelchair_boarding":"2"}},{"type":"Feature","geometry":{"type":"Point","coordinates":[-0.326761,49.168736]},"properties":{"stop_id":"COM_pala02_1","stop_code":null,"stop_name":"Paul Langevin","stop_desc":null,"zone_id":null,"stop_url":null,"location_type":"1","parent_station":null,"stop_timezone":null,"wheelchair_boarding":"2"}},{"type":"Feature","geometry":{"type":"Point","coordinates":[-0.286351,49.154606]},"properties":{"stop_id":"COM_viox01","stop_code":null,"stop_name":"Village Oxylane","stop_desc":null,"zone_id":null,"stop_url":null,"location_type":"1","parent_station":null,"stop_timezone":null,"wheelchair_boarding":"2"}},{"type":"Feature","geometry":{"type":"Point","coordinates":[-0.302925,49.230362]},"properties":{"stop_id":"COM_jocu01","stop_code":null,"stop_name":"Joliot Curie","stop_desc":null,"zone_id":null,"stop_url":null,"location_type":"1","parent_station":null,"stop_timezone":null,"wheelchair_boarding":"2"}},{"type":"Feature","geometry":{"type":"Point","coordinates":[-0.383851,49.17998]},"properties":{"stop_id":"COM_havi01_1","stop_code":null,"stop_name":"Haie Vign\u00e9","stop_desc":null,"zone_id":null,"stop_url":null,"location_type":"1","parent_station":null,"stop_timezone":null,"wheelchair_boarding":"2"}},{"type":"Feature","geometry":{"type":"Point","coordinates":[-0.353688,49.178616]},"properties":{"stop_id":"COM_qdj02","stop_code":null,"stop_name":"Quai de Juillet","stop_desc":null,"zone_id":null,"stop_url":null,"location_type":"1","parent_station":null,"stop_timezone":null,"wheelchair_boarding":"2"}},{"type":"Feature","geometry":{"type":"Point","coordinates":[-0.357906,49.182625]},"properties":{"stop_id":"COM_be01","stop_code":null,"stop_name":"Berni\u00e8res","stop_desc":null,"zone_id":null,"stop_url":null,"location_type":"1","parent_station":null,"stop_timezone":null,"wheelchair_boarding":"2"}},{"type":"Feature","geometry":{"type":"Point","coordinates":[-0.356655,49.21142]},"properties":{"stop_id":"COM_ci01","stop_code":null,"stop_name":"CITIS","stop_desc":null,"zone_id":null,"stop_url":null,"location_type":"1","parent_station":null,"stop_timezone":null,"wheelchair_boarding":"2"}},{"type":"Feature","geometry":{"type":"Point","coordinates":[-0.364479,49.212635]},"properties":{"stop_id":"COM_ca01","stop_code":null,"stop_name":"Campus 2","stop_desc":null,"zone_id":null,"stop_url":null,"location_type":"1","parent_station":null,"stop_timezone":null,"wheelchair_boarding":"2"}},{"type":"Feature","geometry":{"type":"Point","coordinates":[-0.354058,49.19966]},"properties":{"stop_id":"COM_cule02","stop_code":null,"stop_name":"Cit\u00e9 U Lebisey","stop_desc":null,"zone_id":null,"stop_url":null,"location_type":"1","parent_station":null,"stop_timezone":null,"wheelchair_boarding":"2"}},{"type":"Feature","geometry":{"type":"Point","coordinates":[-0.344369,49.17337]},"properties":{"stop_id":"COM_bl01","stop_code":null,"stop_name":"Leroy","stop_desc":null,"zone_id":null,"stop_url":null,"location_type":"1","parent_station":null,"stop_timezone":null,"wheelchair_boarding":"2"}},{"type":"Feature","geometry":{"type":"Point","coordinates":[-0.354185,49.162083]},"properties":{"stop_id":"COM_rf02","stop_code":null,"stop_name":"Rostand Fresnel","stop_desc":null,"zone_id":null,"stop_url":null,"location_type":"1","parent_station":null,"stop_timezone":null,"wheelchair_boarding":"2"}},{"type":"Feature","geometry":{"type":"Point","coordinates":[-0.347961,49.181713]},"properties":{"stop_id":"COM_pr02","stop_code":null,"stop_name":"Presqu'\u00cele","stop_desc":null,"zone_id":null,"stop_url":null,"location_type":"1","parent_station":null,"stop_timezone":null,"wheelchair_boarding":"2"}},{"type":"Feature","geometry":{"type":"Point","coordinates":[-0.363884,49.188877]},"properties":{"stop_id":"COM_un01","stop_code":null,"stop_name":"Universit\u00e9","stop_desc":null,"zone_id":null,"stop_url":null,"location_type":"1","parent_station":null,"stop_timezone":null,"wheelchair_boarding":"2"}},{"type":"Feature","geometry":{"type":"Point","coordinates":[-0.364151,49.198444]},"properties":{"stop_id":"COM_casp62","stop_code":null,"stop_name":"Calvaire Saint-Pierre","stop_desc":null,"zone_id":null,"stop_url":null,"location_type":"1","parent_station":null,"stop_timezone":null,"wheelchair_boarding":"2"}},{"type":"Feature","geometry":{"type":"Point","coordinates":[-0.37505,49.20908]},"properties":{"stop_id":"COM_lelu01","stop_code":null,"stop_name":"Les Luthiers","stop_desc":null,"zone_id":null,"stop_url":null,"location_type":"1","parent_station":null,"stop_timezone":null,"wheelchair_boarding":"2"}},{"type":"Feature","geometry":{"type":"Point","coordinates":[-0.383357,49.251186]},"properties":{"stop_id":"ARCOM@MAT022","stop_code":null,"stop_name":"Equipement","stop_desc":null,"zone_id":null,"stop_url":null,"location_type":"1","parent_station":null,"stop_timezone":null,"wheelchair_boarding":"2"}},{"type":"Feature","geometry":{"type":"Point","coordinates":[-0.177061,49.203712]},"properties":{"stop_id":"StopArea3836","stop_code":null,"stop_name":"Bures Lavoir","stop_desc":null,"zone_id":null,"stop_url":null,"location_type":"1","parent_station":null,"stop_timezone":null,"wheelchair_boarding":"2"}},{"type":"Feature","geometry":{"type":"Point","coordinates":[-0.227309,49.178246]},"properties":{"stop_id":"COM_saeur02","stop_code":null,"stop_name":"Europe","stop_desc":null,"zone_id":null,"stop_url":null,"location_type":"1","parent_station":null,"stop_timezone":null,"wheelchair_boarding":"2"}},{"type":"Feature","geometry":{"type":"Point","coordinates":[-0.337617,49.199825]},"properties":{"stop_id":"COM_avbe02","stop_code":null,"stop_name":"Berlin","stop_desc":null,"zone_id":null,"stop_url":null,"location_type":"1","parent_station":null,"stop_timezone":null,"wheelchair_boarding":"2"}},{"type":"Feature","geometry":{"type":"Point","coordinates":[-0.328547,49.19528]},"properties":{"stop_id":"COM_conn","stop_code":null,"stop_name":"H\u00e9rouville Piscine","stop_desc":null,"zone_id":null,"stop_url":null,"location_type":"1","parent_station":null,"stop_timezone":null,"wheelchair_boarding":"2"}},{"type":"Feature","geometry":{"type":"Point","coordinates":[-0.335395,49.196922]},"properties":{"stop_id":"COM_gyla02","stop_code":null,"stop_name":"Gymnase Laporte","stop_desc":null,"zone_id":null,"stop_url":null,"location_type":"1","parent_station":null,"stop_timezone":null,"wheelchair_boarding":"2"}},{"type":"Feature","geometry":{"type":"Point","coordinates":[-0.371368,49.14433]},"properties":{"stop_id":"COM_digu02_1","stop_code":null,"stop_name":"Digues","stop_desc":null,"zone_id":null,"stop_url":null,"location_type":"1","parent_station":null,"stop_timezone":null,"wheelchair_boarding":"2"}},{"type":"Feature","geometry":{"type":"Point","coordinates":[-0.380553,49.117672]},"properties":{"stop_id":"ARCOM@STA024","stop_code":null,"stop_name":"Ren\u00e9 Goscinny","stop_desc":null,"zone_id":null,"stop_url":null,"location_type":"1","parent_station":null,"stop_timezone":null,"wheelchair_boarding":"2"}},{"type":"Feature","geometry":{"type":"Point","coordinates":[-0.366642,49.145515]},"properties":{"stop_id":"COM_noka12","stop_code":null,"stop_name":"Normandika","stop_desc":null,"zone_id":null,"stop_url":null,"location_type":"1","parent_station":null,"stop_timezone":null,"wheelchair_boarding":"2"}},{"type":"Feature","geometry":{"type":"Point","coordinates":[-0.31228,49.154263]},"properties":{"stop_id":"COM_chpp01","stop_code":null,"stop_name":"Chappe","stop_desc":null,"zone_id":null,"stop_url":null,"location_type":"1","parent_station":null,"stop_timezone":null,"wheelchair_boarding":"2"}},{"type":"Feature","geometry":{"type":"Point","coordinates":[-0.332289,49.19747]},"properties":{"stop_id":"COM_cova02","stop_code":null,"stop_name":"Coll\u00e8ge Varignon","stop_desc":null,"zone_id":null,"stop_url":null,"location_type":"1","parent_station":null,"stop_timezone":null,"wheelchair_boarding":"2"}},{"type":"Feature","geometry":{"type":"Point","coordinates":[-0.310203,49.29033]},"properties":{"stop_id":"COM_hmca01_1","stop_code":null,"stop_name":"Canardi\u00e8re","stop_desc":null,"zone_id":null,"stop_url":null,"location_type":"1","parent_station":null,"stop_timezone":null,"wheelchair_boarding":"2"}},{"type":"Feature","geometry":{"type":"Point","coordinates":[-0.348297,49.18903]},"properties":{"stop_id":"COM_paor01","stop_code":null,"stop_name":"Parc d'Ornano","stop_desc":null,"zone_id":null,"stop_url":null,"location_type":"1","parent_station":null,"stop_timezone":null,"wheelchair_boarding":"2"}},{"type":"Feature","geometry":{"type":"Point","coordinates":[-0.446754,49.184624]},"properties":{"stop_id":"COM_squa12","stop_code":null,"stop_name":"Square","stop_desc":null,"zone_id":null,"stop_url":null,"location_type":"1","parent_station":null,"stop_timezone":null,"wheelchair_boarding":"2"}},{"type":"Feature","geometry":{"type":"Point","coordinates":[-0.435048,49.185432]},"properties":{"stop_id":"COM_lpla11","stop_code":null,"stop_name":"La Plaine","stop_desc":null,"zone_id":null,"stop_url":null,"location_type":"1","parent_station":null,"stop_timezone":null,"wheelchair_boarding":"2"}},{"type":"Feature","geometry":{"type":"Point","coordinates":[-0.416697,49.187313]},"properties":{"stop_id":"COM_rcau02","stop_code":null,"stop_name":"Route de Caumont","stop_desc":null,"zone_id":null,"stop_url":null,"location_type":"1","parent_station":null,"stop_timezone":null,"wheelchair_boarding":"2"}},{"type":"Feature","geometry":{"type":"Point","coordinates":[-0.445873,49.187225]},"properties":{"stop_id":"COM_p27j01","stop_code":null,"stop_name":"Place du 27 Juin","stop_desc":null,"zone_id":null,"stop_url":null,"location_type":"1","parent_station":null,"stop_timezone":null,"wheelchair_boarding":"2"}},{"type":"Feature","geometry":{"type":"Point","coordinates":[-0.312209,49.168243]},"properties":{"stop_id":"COM_dub01","stop_code":null,"stop_name":"Dublin","stop_desc":null,"zone_id":null,"stop_url":null,"location_type":"1","parent_station":null,"stop_timezone":null,"wheelchair_boarding":"2"}},{"type":"Feature","geometry":{"type":"Point","coordinates":[-0.183914,49.181408]},"properties":{"stop_id":"COM_acaci01_1","stop_code":null,"stop_name":"Acacia","stop_desc":null,"zone_id":null,"stop_url":null,"location_type":"1","parent_station":null,"stop_timezone":null,"wheelchair_boarding":"2"}},{"type":"Feature","geometry":{"type":"Point","coordinates":[-0.362459,49.180676]},"properties":{"stop_id":"ARCOM@C100","stop_code":null,"stop_name":"Th\u00e9\u00e2tre Quai 2","stop_desc":null,"zone_id":null,"stop_url":null,"location_type":"1","parent_station":null,"stop_timezone":null,"wheelchair_boarding":"2"}},{"type":"Feature","geometry":{"type":"Point","coordinates":[-0.378159,49.12093]},"properties":{"stop_id":"ARCOM@STA022","stop_code":null,"stop_name":"Luxembourg","stop_desc":null,"zone_id":null,"stop_url":null,"location_type":"1","parent_station":null,"stop_timezone":null,"wheelchair_boarding":"2"}},{"type":"Feature","geometry":{"type":"Point","coordinates":[-0.385631,49.171932]},"properties":{"stop_id":"COM_queb11","stop_code":null,"stop_name":"Palais des Sports","stop_desc":null,"zone_id":null,"stop_url":null,"location_type":"1","parent_station":null,"stop_timezone":null,"wheelchair_boarding":"2"}},{"type":"Feature","geometry":{"type":"Point","coordinates":[-0.41581,49.169292]},"properties":{"stop_id":"COM_rbui02_1","stop_code":null,"stop_name":"Buisson","stop_desc":null,"zone_id":null,"stop_url":null,"location_type":"1","parent_station":null,"stop_timezone":null,"wheelchair_boarding":"2"}},{"type":"Feature","geometry":{"type":"Point","coordinates":[-0.288449,49.205593]},"properties":{"stop_id":"COM_frat01","stop_code":null,"stop_name":"Fraternit\u00e9","stop_desc":null,"zone_id":null,"stop_url":null,"location_type":"1","parent_station":null,"stop_timezone":null,"wheelchair_boarding":"2"}},{"type":"Feature","geometry":{"type":"Point","coordinates":[-0.250643,49.279682]},"properties":{"stop_id":"COM_poou02","stop_code":null,"stop_name":"Ouistreham Port","stop_desc":null,"zone_id":null,"stop_url":null,"location_type":"1","parent_station":null,"stop_timezone":null,"wheelchair_boarding":"2"}},{"type":"Feature","geometry":{"type":"Point","coordinates":[-0.293142,49.19978]},"properties":{"stop_id":"COM_laza02_1","stop_code":null,"stop_name":"Lazzaro","stop_desc":null,"zone_id":null,"stop_url":null,"location_type":"1","parent_station":null,"stop_timezone":null,"wheelchair_boarding":"2"}},{"type":"Feature","geometry":{"type":"Point","coordinates":[-0.286888,49.2607]},"properties":{"stop_id":"COM_masa01","stop_code":null,"stop_name":"Saint-Aubin Mairie","stop_desc":null,"zone_id":null,"stop_url":null,"location_type":"1","parent_station":null,"stop_timezone":null,"wheelchair_boarding":"2"}},{"type":"Feature","geometry":{"type":"Point","coordinates":[-0.255695,49.28205]},"properties":{"stop_id":"COM_ougl01_1","stop_code":null,"stop_name":"G\u00e9n\u00e9ral Leclerc","stop_desc":null,"zone_id":null,"stop_url":null,"location_type":"1","parent_station":null,"stop_timezone":null,"wheelchair_boarding":"2"}},{"type":"Feature","geometry":{"type":"Point","coordinates":[-0.433366,49.175335]},"properties":{"stop_id":"COM_koeni11","stop_code":null,"stop_name":"Koenig","stop_desc":null,"zone_id":null,"stop_url":null,"location_type":"1","parent_station":null,"stop_timezone":null,"wheelchair_boarding":"2"}},{"type":"Feature","geometry":{"type":"Point","coordinates":[-0.410331,49.16761]},"properties":{"stop_id":"COM_50ac02","stop_code":null,"stop_name":"50 Acres","stop_desc":null,"zone_id":null,"stop_url":null,"location_type":"1","parent_station":null,"stop_timezone":null,"wheelchair_boarding":"2"}},{"type":"Feature","geometry":{"type":"Point","coordinates":[-0.405249,49.215088]},"properties":{"stop_id":"COM_esta01","stop_code":null,"stop_name":"Estapi","stop_desc":null,"zone_id":null,"stop_url":null,"location_type":"1","parent_station":null,"stop_timezone":null,"wheelchair_boarding":"2"}},{"type":"Feature","geometry":{"type":"Point","coordinates":[-0.407434,49.168564]},"properties":{"stop_id":"1150078","stop_code":null,"stop_name":"Terrasses","stop_desc":null,"zone_id":null,"stop_url":null,"location_type":"1","parent_station":null,"stop_timezone":null,"wheelchair_boarding":"2"}},{"type":"Feature","geometry":{"type":"Point","coordinates":[-0.387118,49.19342]},"properties":{"stop_id":"COM_pich11","stop_code":null,"stop_name":"Robert Schuman","stop_desc":null,"zone_id":null,"stop_url":null,"location_type":"1","parent_station":null,"stop_timezone":null,"wheelchair_boarding":"2"}},{"type":"Feature","geometry":{"type":"Point","coordinates":[-0.367497,49.218697]},"properties":{"stop_id":"COM_coqu02_1","stop_code":null,"stop_name":"Coquelicots","stop_desc":null,"zone_id":null,"stop_url":null,"location_type":"1","parent_station":null,"stop_timezone":null,"wheelchair_boarding":"2"}},{"type":"Feature","geometry":{"type":"Point","coordinates":[-0.387457,49.218857]},"properties":{"stop_id":"COM_pote01","stop_code":null,"stop_name":"Poterie","stop_desc":null,"zone_id":null,"stop_url":null,"location_type":"1","parent_station":null,"stop_timezone":null,"wheelchair_boarding":"2"}},{"type":"Feature","geometry":{"type":"Point","coordinates":[-0.369675,49.21652]},"properties":{"stop_id":"COM_ruene01","stop_code":null,"stop_name":"Energie","stop_desc":null,"zone_id":null,"stop_url":null,"location_type":"1","parent_station":null,"stop_timezone":null,"wheelchair_boarding":"2"}},{"type":"Feature","geometry":{"type":"Point","coordinates":[-0.367219,49.209507]},"properties":{"stop_id":"COM_cacc02_2","stop_code":null,"stop_name":"Campus 2 C. Commercial","stop_desc":null,"zone_id":null,"stop_url":null,"location_type":"1","parent_station":null,"stop_timezone":null,"wheelchair_boarding":"2"}},{"type":"Feature","geometry":{"type":"Point","coordinates":[-0.317,49.127884]},"properties":{"stop_id":"COM_leti02","stop_code":null,"stop_name":"Les Tilleuls","stop_desc":null,"zone_id":null,"stop_url":null,"location_type":"1","parent_station":null,"stop_timezone":null,"wheelchair_boarding":"2"}},{"type":"Feature","geometry":{"type":"Point","coordinates":[-0.371021,49.22314]},"properties":{"stop_id":"COM_epron","stop_code":null,"stop_name":"Epron Mairie","stop_desc":null,"zone_id":null,"stop_url":null,"location_type":"1","parent_station":null,"stop_timezone":null,"wheelchair_boarding":"2"}},{"type":"Feature","geometry":{"type":"Point","coordinates":[-0.388739,49.23373]},"properties":{"stop_id":"COM_clep12","stop_code":null,"stop_name":"Clos de l'Epine","stop_desc":null,"zone_id":null,"stop_url":null,"location_type":"1","parent_station":null,"stop_timezone":null,"wheelchair_boarding":"2"}},{"type":"Feature","geometry":{"type":"Point","coordinates":[-0.38544,49.20318]},"properties":{"stop_id":"1150252","stop_code":null,"stop_name":"Lyc\u00e9e Claudel","stop_desc":null,"zone_id":null,"stop_url":null,"location_type":"1","parent_station":null,"stop_timezone":null,"wheelchair_boarding":"2"}},{"type":"Feature","geometry":{"type":"Point","coordinates":[-0.378739,49.205925]},"properties":{"stop_id":"COM_poas02","stop_code":null,"stop_name":"Coll\u00e8ge Monod","stop_desc":null,"zone_id":null,"stop_url":null,"location_type":"1","parent_station":null,"stop_timezone":null,"wheelchair_boarding":"2"}},{"type":"Feature","geometry":{"type":"Point","coordinates":[-0.369552,49.193253]},"properties":{"stop_id":"COM_etri01_1","stop_code":null,"stop_name":"Etrier","stop_desc":null,"zone_id":null,"stop_url":null,"location_type":"1","parent_station":null,"stop_timezone":null,"wheelchair_boarding":"2"}},{"type":"Feature","geometry":{"type":"Point","coordinates":[-0.358282,49.18287]},"properties":{"stop_id":"COM_bern11","stop_code":null,"stop_name":"Berni\u00e8res","stop_desc":null,"zone_id":null,"stop_url":null,"location_type":"1","parent_station":null,"stop_timezone":null,"wheelchair_boarding":"2"}},{"type":"Feature","geometry":{"type":"Point","coordinates":[-0.394551,49.17281]},"properties":{"stop_id":"COM_egve01_1","stop_code":null,"stop_name":"Venoix Eglise","stop_desc":null,"zone_id":null,"stop_url":null,"location_type":"1","parent_station":null,"stop_timezone":null,"wheelchair_boarding":"2"}},{"type":"Feature","geometry":{"type":"Point","coordinates":[-0.39094,49.174015]},"properties":{"stop_id":"ARCOM@C091","stop_code":null,"stop_name":"Pickford","stop_desc":null,"zone_id":null,"stop_url":null,"location_type":"1","parent_station":null,"stop_timezone":null,"wheelchair_boarding":"2"}},{"type":"Feature","geometry":{"type":"Point","coordinates":[-0.370627,49.194653]},"properties":{"stop_id":"COM_sabl02","stop_code":null,"stop_name":"Sablons","stop_desc":null,"zone_id":null,"stop_url":null,"location_type":"1","parent_station":null,"stop_timezone":null,"wheelchair_boarding":"2"}},{"type":"Feature","geometry":{"type":"Point","coordinates":[-0.382221,49.2047]},"properties":{"stop_id":"COM_acad02_1","stop_code":null,"stop_name":"Acadiens","stop_desc":null,"zone_id":null,"stop_url":null,"location_type":"1","parent_station":null,"stop_timezone":null,"wheelchair_boarding":"2"}},{"type":"Feature","geometry":{"type":"Point","coordinates":[-0.360348,49.18601]},"properties":{"stop_id":"ARCOM@C052","stop_code":null,"stop_name":"Vaugueux","stop_desc":null,"zone_id":null,"stop_url":null,"location_type":"1","parent_station":null,"stop_timezone":null,"wheelchair_boarding":"2"}},{"type":"Feature","geometry":{"type":"Point","coordinates":[-0.31877,49.14169]},"properties":{"stop_id":"COM_mada01","stop_code":null,"stop_name":"Centre P\u00e9nitentiaire","stop_desc":null,"zone_id":null,"stop_url":null,"location_type":"1","parent_station":null,"stop_timezone":null,"wheelchair_boarding":"2"}},{"type":"Feature","geometry":{"type":"Point","coordinates":[-0.345504,49.14793]},"properties":{"stop_id":"COM_stmf02","stop_code":null,"stop_name":"Mend\u00e8s France","stop_desc":null,"zone_id":null,"stop_url":null,"location_type":"1","parent_station":null,"stop_timezone":null,"wheelchair_boarding":"2"}},{"type":"Feature","geometry":{"type":"Point","coordinates":[-0.509925,49.209743]},"properties":{"stop_id":"ARCOM@BLO002","stop_code":null,"stop_name":"L'Orgueilleuse Eglise","stop_desc":null,"zone_id":null,"stop_url":null,"location_type":"1","parent_station":null,"stop_timezone":null,"wheelchair_boarding":"2"}},{"type":"Feature","geometry":{"type":"Point","coordinates":[-0.349523,49.156933]},"properties":{"stop_id":"COM_lcha02_1","stop_code":null,"stop_name":"La Chapelle","stop_desc":null,"zone_id":null,"stop_url":null,"location_type":"1","parent_station":null,"stop_timezone":null,"wheelchair_boarding":"2"}},{"type":"Feature","geometry":{"type":"Point","coordinates":[-0.514009,49.196842]},"properties":{"stop_id":"COM_noeg02","stop_code":null,"stop_name":"Norrey Eglise","stop_desc":null,"zone_id":null,"stop_url":null,"location_type":"1","parent_station":null,"stop_timezone":null,"wheelchair_boarding":"2"}},{"type":"Feature","geometry":{"type":"Point","coordinates":[-0.345044,49.15438]},"properties":{"stop_id":"COM_modi42","stop_code":null,"stop_name":"Modigliani","stop_desc":null,"zone_id":null,"stop_url":null,"location_type":"1","parent_station":null,"stop_timezone":null,"wheelchair_boarding":"2"}},{"type":"Feature","geometry":{"type":"Point","coordinates":[-0.52185,49.213337]},"properties":{"stop_id":"ARCOM@BLO020","stop_code":null,"stop_name":"Bessin","stop_desc":null,"zone_id":null,"stop_url":null,"location_type":"1","parent_station":null,"stop_timezone":null,"wheelchair_boarding":"2"}},{"type":"Feature","geometry":{"type":"Point","coordinates":[-0.545572,49.19489]},"properties":{"stop_id":"COM_mepa01","stop_code":null,"stop_name":"Mesnil Patry","stop_desc":null,"zone_id":null,"stop_url":null,"location_type":"1","parent_station":null,"stop_timezone":null,"wheelchair_boarding":"2"}},{"type":"Feature","geometry":{"type":"Point","coordinates":[-0.47687,49.2064]},"properties":{"stop_id":"COM_ecro01","stop_code":null,"stop_name":"Rots Ecole","stop_desc":null,"zone_id":null,"stop_url":null,"location_type":"1","parent_station":null,"stop_timezone":null,"wheelchair_boarding":"2"}},{"type":"Feature","geometry":{"type":"Point","coordinates":[-0.342344,49.14062]},"properties":{"stop_id":"COM_blwa02","stop_code":null,"stop_name":"Black Watch","stop_desc":null,"zone_id":null,"stop_url":null,"location_type":"1","parent_station":null,"stop_timezone":null,"wheelchair_boarding":"2"}},{"type":"Feature","geometry":{"type":"Point","coordinates":[-0.344788,49.149956]},"properties":{"stop_id":"COM_chva12_1","stop_code":null,"stop_name":"Chemin du Val","stop_desc":null,"zone_id":null,"stop_url":null,"location_type":"1","parent_station":null,"stop_timezone":null,"wheelchair_boarding":"2"}},{"type":"Feature","geometry":{"type":"Point","coordinates":[-0.361533,49.205925]},"properties":{"stop_id":"COM_chuo02","stop_code":null,"stop_name":"Mont Coco","stop_desc":null,"zone_id":null,"stop_url":null,"location_type":"1","parent_station":null,"stop_timezone":null,"wheelchair_boarding":"2"}},{"type":"Feature","geometry":{"type":"Point","coordinates":[-0.320892,49.204556]},"properties":{"stop_id":"COM_pdlm31","stop_code":null,"stop_name":"Portes de la Mer","stop_desc":null,"zone_id":null,"stop_url":null,"location_type":"1","parent_station":null,"stop_timezone":null,"wheelchair_boarding":"2"}},{"type":"Feature","geometry":{"type":"Point","coordinates":[-0.360845,49.184406]},"properties":{"stop_id":"COM_chdc01","stop_code":null,"stop_name":"Ch\u00e2teau","stop_desc":null,"zone_id":null,"stop_url":null,"location_type":"1","parent_station":null,"stop_timezone":null,"wheelchair_boarding":"2"}},{"type":"Feature","geometry":{"type":"Point","coordinates":[-0.350292,49.14986]},"properties":{"stop_id":"COM_jevi02_3","stop_code":null,"stop_name":"Jean Vilar","stop_desc":null,"zone_id":null,"stop_url":null,"location_type":"1","parent_station":null,"stop_timezone":null,"wheelchair_boarding":"2"}},{"type":"Feature","geometry":{"type":"Point","coordinates":[-0.363656,49.1823]},"properties":{"stop_id":"COM_stasb01","stop_code":null,"stop_name":"Place de la R\u00e9publique","stop_desc":null,"zone_id":null,"stop_url":null,"location_type":"1","parent_station":null,"stop_timezone":null,"wheelchair_boarding":"2"}},{"type":"Feature","geometry":{"type":"Point","coordinates":[-0.307803,49.125294]},"properties":{"stop_id":"COM_mupl02","stop_code":null,"stop_name":"Musique en Plaine","stop_desc":null,"zone_id":null,"stop_url":null,"location_type":"1","parent_station":null,"stop_timezone":null,"wheelchair_boarding":"2"}},{"type":"Feature","geometry":{"type":"Point","coordinates":[-0.325728,49.17685]},"properties":{"stop_id":"COM_gema01_1","stop_code":null,"stop_name":"Georges Maudouit","stop_desc":null,"zone_id":null,"stop_url":null,"location_type":"1","parent_station":null,"stop_timezone":null,"wheelchair_boarding":"2"}},{"type":"Feature","geometry":{"type":"Point","coordinates":[-0.336567,49.139317]},"properties":{"stop_id":"COM_ladr11","stop_code":null,"stop_name":"La Dronni\u00e8re","stop_desc":null,"zone_id":null,"stop_url":null,"location_type":"1","parent_station":null,"stop_timezone":null,"wheelchair_boarding":"2"}},{"type":"Feature","geometry":{"type":"Point","coordinates":[-0.294037,49.13855]},"properties":{"stop_id":"ARCOM@SOL023","stop_code":null,"stop_name":"Clos Neuf","stop_desc":null,"zone_id":null,"stop_url":null,"location_type":"1","parent_station":null,"stop_timezone":null,"wheelchair_boarding":"2"}},{"type":"Feature","geometry":{"type":"Point","coordinates":[-0.343112,49.20378]},"properties":{"stop_id":"COM_alle01","stop_code":null,"stop_name":"Allende","stop_desc":null,"zone_id":null,"stop_url":null,"location_type":"1","parent_station":null,"stop_timezone":null,"wheelchair_boarding":"2"}},{"type":"Feature","geometry":{"type":"Point","coordinates":[-0.173655,49.199253]},"properties":{"stop_id":"1173831","stop_code":null,"stop_name":"Bures","stop_desc":null,"zone_id":null,"stop_url":null,"location_type":"1","parent_station":null,"stop_timezone":null,"wheelchair_boarding":"2"}},{"type":"Feature","geometry":{"type":"Point","coordinates":[-0.342014,49.17107]},"properties":{"stop_id":"COM_vl01","stop_code":null,"stop_name":"Lux-L\u00e9pine","stop_desc":null,"zone_id":null,"stop_url":null,"location_type":"1","parent_station":null,"stop_timezone":null,"wheelchair_boarding":"2"}},{"type":"Feature","geometry":{"type":"Point","coordinates":[-0.343422,49.216373]},"properties":{"stop_id":"COM_ecol02","stop_code":null,"stop_name":"Lebisey","stop_desc":null,"zone_id":null,"stop_url":null,"location_type":"1","parent_station":null,"stop_timezone":null,"wheelchair_boarding":"2"}},{"type":"Feature","geometry":{"type":"Point","coordinates":[-0.340224,49.202732]},"properties":{"stop_id":"COM_che02_3","stop_code":null,"stop_name":"Ch\u00e2teau d'Eau","stop_desc":null,"zone_id":null,"stop_url":null,"location_type":"1","parent_station":null,"stop_timezone":null,"wheelchair_boarding":"2"}},{"type":"Feature","geometry":{"type":"Point","coordinates":[-0.336416,49.202576]},"properties":{"stop_id":"COM_ac02","stop_code":null,"stop_name":"Place de l'Europe","stop_desc":null,"zone_id":null,"stop_url":null,"location_type":"1","parent_station":null,"stop_timezone":null,"wheelchair_boarding":"2"}},{"type":"Feature","geometry":{"type":"Point","coordinates":[-0.282141,49.17236]},"properties":{"stop_id":"COM_mart01","stop_code":null,"stop_name":"Martray","stop_desc":null,"zone_id":null,"stop_url":null,"location_type":"1","parent_station":null,"stop_timezone":null,"wheelchair_boarding":"2"}},{"type":"Feature","geometry":{"type":"Point","coordinates":[-0.326445,49.211376]},"properties":{"stop_id":"COM_ecmu01","stop_code":null,"stop_name":"Claudie Haigner\u00e9","stop_desc":null,"zone_id":null,"stop_url":null,"location_type":"1","parent_station":null,"stop_timezone":null,"wheelchair_boarding":"2"}},{"type":"Feature","geometry":{"type":"Point","coordinates":[-0.34442,49.20138]},"properties":{"stop_id":"COM_nelma","stop_code":null,"stop_name":"Coll\u00e8ge Mandela","stop_desc":null,"zone_id":null,"stop_url":null,"location_type":"1","parent_station":null,"stop_timezone":null,"wheelchair_boarding":"2"}},{"type":"Feature","geometry":{"type":"Point","coordinates":[-0.351066,49.218155]},"properties":{"stop_id":"COM_beri11_1","stop_code":null,"stop_name":"Beau Rivage","stop_desc":null,"zone_id":null,"stop_url":null,"location_type":"1","parent_station":null,"stop_timezone":null,"wheelchair_boarding":"2"}},{"type":"Feature","geometry":{"type":"Point","coordinates":[-0.32454,49.20878]},"properties":{"stop_id":"COM_pate22_1","stop_code":null,"stop_name":"Parc Tertiaire","stop_desc":null,"zone_id":null,"stop_url":null,"location_type":"1","parent_station":null,"stop_timezone":null,"wheelchair_boarding":"2"}},{"type":"Feature","geometry":{"type":"Point","coordinates":[-0.471116,49.14985]},"properties":{"stop_id":"1151173","stop_code":null,"stop_name":"Rond Point","stop_desc":null,"zone_id":null,"stop_url":null,"location_type":"1","parent_station":null,"stop_timezone":null,"wheelchair_boarding":"2"}},{"type":"Feature","geometry":{"type":"Point","coordinates":[-0.402342,49.162025]},"properties":{"stop_id":"COM_rtev02","stop_code":null,"stop_name":"Route d'Evrecy","stop_desc":null,"zone_id":null,"stop_url":null,"location_type":"1","parent_station":null,"stop_timezone":null,"wheelchair_boarding":"2"}},{"type":"Feature","geometry":{"type":"Point","coordinates":[-0.222076,49.180984]},"properties":{"stop_id":"COM_libec02","stop_code":null,"stop_name":"Lib\u00e9ration","stop_desc":null,"zone_id":null,"stop_url":null,"location_type":"1","parent_station":null,"stop_timezone":null,"wheelchair_boarding":"2"}},{"type":"Feature","geometry":{"type":"Point","coordinates":[-0.452424,49.15524]},"properties":{"stop_id":"COM_lope01","stop_code":null,"stop_name":"Loup Pendu","stop_desc":null,"zone_id":null,"stop_url":null,"location_type":"1","parent_station":null,"stop_timezone":null,"wheelchair_boarding":"2"}},{"type":"Feature","geometry":{"type":"Point","coordinates":[-0.226573,49.17929]},"properties":{"stop_id":"COM_rust02","stop_code":null,"stop_name":"Rue du Stade","stop_desc":null,"zone_id":null,"stop_url":null,"location_type":"1","parent_station":null,"stop_timezone":null,"wheelchair_boarding":"2"}},{"type":"Feature","geometry":{"type":"Point","coordinates":[-0.392178,49.15674]},"properties":{"stop_id":"COM_loce02_1","stop_code":null,"stop_name":"Louvigny Centre","stop_desc":null,"zone_id":null,"stop_url":null,"location_type":"1","parent_station":null,"stop_timezone":null,"wheelchair_boarding":"2"}},{"type":"Feature","geometry":{"type":"Point","coordinates":[-0.40059,49.157307]},"properties":{"stop_id":"COM_louvi","stop_code":null,"stop_name":"Michelet","stop_desc":null,"zone_id":null,"stop_url":null,"location_type":"1","parent_station":null,"stop_timezone":null,"wheelchair_boarding":"2"}},{"type":"Feature","geometry":{"type":"Point","coordinates":[-0.456629,49.154026]},"properties":{"stop_id":"1151172","stop_code":null,"stop_name":"Saint-Manvieu","stop_desc":null,"zone_id":null,"stop_url":null,"location_type":"1","parent_station":null,"stop_timezone":null,"wheelchair_boarding":"2"}},{"type":"Feature","geometry":{"type":"Point","coordinates":[-0.398234,49.16118]},"properties":{"stop_id":"COM_loco12","stop_code":null,"stop_name":"Long Cours","stop_desc":null,"zone_id":null,"stop_url":null,"location_type":"1","parent_station":null,"stop_timezone":null,"wheelchair_boarding":"2"}},{"type":"Feature","geometry":{"type":"Point","coordinates":[-0.371457,49.244843]},"properties":{"stop_id":"ARCOM@MAT021","stop_code":null,"stop_name":"Les Vikings","stop_desc":null,"zone_id":null,"stop_url":null,"location_type":"1","parent_station":null,"stop_timezone":null,"wheelchair_boarding":"2"}},{"type":"Feature","geometry":{"type":"Point","coordinates":[-0.366596,49.210484]},"properties":{"stop_id":"ARCOM@C099","stop_code":null,"stop_name":"Mar\u00e9chal Juin","stop_desc":null,"zone_id":null,"stop_url":null,"location_type":"1","parent_station":null,"stop_timezone":null,"wheelchair_boarding":"2"}},{"type":"Feature","geometry":{"type":"Point","coordinates":[-0.301743,49.27436]},"properties":{"stop_id":"ARCOM@COC020","stop_code":null,"stop_name":"Pi\u00e9plu","stop_desc":null,"zone_id":null,"stop_url":null,"location_type":"1","parent_station":null,"stop_timezone":null,"wheelchair_boarding":"2"}},{"type":"Feature","geometry":{"type":"Point","coordinates":[-0.365131,49.25115]},"properties":{"stop_id":"COM_mats11","stop_code":null,"stop_name":"Sureaux","stop_desc":null,"zone_id":null,"stop_url":null,"location_type":"1","parent_station":null,"stop_timezone":null,"wheelchair_boarding":"2"}},{"type":"Feature","geometry":{"type":"Point","coordinates":[-0.271307,49.180653]},"properties":{"stop_id":"COM_rdba01","stop_code":null,"stop_name":"Barentins","stop_desc":null,"zone_id":null,"stop_url":null,"location_type":"1","parent_station":null,"stop_timezone":null,"wheelchair_boarding":"2"}},{"type":"Feature","geometry":{"type":"Point","coordinates":[-0.363249,49.238113]},"properties":{"stop_id":"COM_lond01","stop_code":null,"stop_name":"Le Londel","stop_desc":null,"zone_id":null,"stop_url":null,"location_type":"1","parent_station":null,"stop_timezone":null,"wheelchair_boarding":"2"}},{"type":"Feature","geometry":{"type":"Point","coordinates":[-0.310284,49.185852]},"properties":{"stop_id":"COM_grbu01_1","stop_code":null,"stop_name":"Grands Bureaux","stop_desc":null,"zone_id":null,"stop_url":null,"location_type":"1","parent_station":null,"stop_timezone":null,"wheelchair_boarding":"2"}},{"type":"Feature","geometry":{"type":"Point","coordinates":[-0.377129,49.258663]},"properties":{"stop_id":"COM_angu02","stop_code":null,"stop_name":"Anguerny","stop_desc":null,"zone_id":null,"stop_url":null,"location_type":"1","parent_station":null,"stop_timezone":null,"wheelchair_boarding":"2"}},{"type":"Feature","geometry":{"type":"Point","coordinates":[-0.289747,49.187885]},"properties":{"stop_id":"COM_ruci01","stop_code":null,"stop_name":"Rue des Cit\u00e9s","stop_desc":null,"zone_id":null,"stop_url":null,"location_type":"1","parent_station":null,"stop_timezone":null,"wheelchair_boarding":"2"}},{"type":"Feature","geometry":{"type":"Point","coordinates":[-0.295754,49.278217]},"properties":{"stop_id":"COM_capu02","stop_code":null,"stop_name":"Capucines","stop_desc":null,"zone_id":null,"stop_url":null,"location_type":"1","parent_station":null,"stop_timezone":null,"wheelchair_boarding":"2"}},{"type":"Feature","geometry":{"type":"Point","coordinates":[-0.368679,49.200134]},"properties":{"stop_id":"COM_pesa01_1","stop_code":null,"stop_name":"P\u00e8re Sanson","stop_desc":null,"zone_id":null,"stop_url":null,"location_type":"1","parent_station":null,"stop_timezone":null,"wheelchair_boarding":"2"}},{"type":"Feature","geometry":{"type":"Point","coordinates":[-0.350638,49.180473]},"properties":{"stop_id":"COM_rpdo01","stop_code":null,"stop_name":"Port de Plaisance","stop_desc":null,"zone_id":null,"stop_url":null,"location_type":"1","parent_station":null,"stop_timezone":null,"wheelchair_boarding":"2"}},{"type":"Feature","geometry":{"type":"Point","coordinates":[-0.324166,49.300346]},"properties":{"stop_id":"COM_list01","stop_code":null,"stop_name":"Lion Stade","stop_desc":null,"zone_id":null,"stop_url":null,"location_type":"1","parent_station":null,"stop_timezone":null,"wheelchair_boarding":"2"}},{"type":"Feature","geometry":{"type":"Point","coordinates":[-0.370064,49.201416]},"properties":{"stop_id":"COM_incb01","stop_code":null,"stop_name":"Institut Camille Blaisot","stop_desc":null,"zone_id":null,"stop_url":null,"location_type":"1","parent_station":null,"stop_timezone":null,"wheelchair_boarding":"2"}},{"type":"Feature","geometry":{"type":"Point","coordinates":[-0.468363,49.150642]},"properties":{"stop_id":"COM_grbo01","stop_code":null,"stop_name":"Grand Bois","stop_desc":null,"zone_id":null,"stop_url":null,"location_type":"1","parent_station":null,"stop_timezone":null,"wheelchair_boarding":"2"}},{"type":"Feature","geometry":{"type":"Point","coordinates":[-0.383226,49.19295]},"properties":{"stop_id":"COM_escv02","stop_code":null,"stop_name":"Esp\u00e9rance","stop_desc":null,"zone_id":null,"stop_url":null,"location_type":"1","parent_station":null,"stop_timezone":null,"wheelchair_boarding":"2"}},{"type":"Feature","geometry":{"type":"Point","coordinates":[-0.384895,49.190014]},"properties":{"stop_id":"COM_rese02","stop_code":null,"stop_name":"R\u00e9servoirs","stop_desc":null,"zone_id":null,"stop_url":null,"location_type":"1","parent_station":null,"stop_timezone":null,"wheelchair_boarding":"2"}},{"type":"Feature","geometry":{"type":"Point","coordinates":[-0.390501,49.192223]},"properties":{"stop_id":"COM_egcv01_1","stop_code":null,"stop_name":"Eglise Saint-Joseph","stop_desc":null,"zone_id":null,"stop_url":null,"location_type":"1","parent_station":null,"stop_timezone":null,"wheelchair_boarding":"2"}},{"type":"Feature","geometry":{"type":"Point","coordinates":[-0.489821,49.181953]},"properties":{"stop_id":"COM_lmare01","stop_code":null,"stop_name":"Le Mareschet","stop_desc":null,"zone_id":null,"stop_url":null,"location_type":"1","parent_station":null,"stop_timezone":null,"wheelchair_boarding":"2"}},{"type":"Feature","geometry":{"type":"Point","coordinates":[-0.472847,49.15155]},"properties":{"stop_id":"COM_aven02","stop_code":null,"stop_name":"Avenir","stop_desc":null,"zone_id":null,"stop_url":null,"location_type":"1","parent_station":null,"stop_timezone":null,"wheelchair_boarding":"2"}},{"type":"Feature","geometry":{"type":"Point","coordinates":[-0.534155,49.157043]},"properties":{"stop_id":"ARCOM@CHE025","stop_code":null,"stop_name":"Le Bosq","stop_desc":null,"zone_id":null,"stop_url":null,"location_type":"1","parent_station":null,"stop_timezone":null,"wheelchair_boarding":"2"}},{"type":"Feature","geometry":{"type":"Point","coordinates":[-0.328524,49.171333]},"properties":{"stop_id":"COM_mafo04","stop_code":null,"stop_name":"Maurice Fouques","stop_desc":null,"zone_id":null,"stop_url":null,"location_type":"1","parent_station":null,"stop_timezone":null,"wheelchair_boarding":"2"}},{"type":"Feature","geometry":{"type":"Point","coordinates":[-0.289437,49.09779]},"properties":{"stop_id":"COM_garc02","stop_code":null,"stop_name":"Garcelles Bourg","stop_desc":null,"zone_id":null,"stop_url":null,"location_type":"1","parent_station":null,"stop_timezone":null,"wheelchair_boarding":"2"}},{"type":"Feature","geometry":{"type":"Point","coordinates":[-0.542364,49.211376]},"properties":{"stop_id":"COM_pubb02","stop_code":null,"stop_name":"Putot Bourg","stop_desc":null,"zone_id":null,"stop_url":null,"location_type":"1","parent_station":null,"stop_timezone":null,"wheelchair_boarding":"2"}},{"type":"Feature","geometry":{"type":"Point","coordinates":[-0.305768,49.11083]},"properties":{"stop_id":"COM_till01","stop_code":null,"stop_name":"Tilly Centre","stop_desc":null,"zone_id":null,"stop_url":null,"location_type":"1","parent_station":null,"stop_timezone":null,"wheelchair_boarding":"2"}},{"type":"Feature","geometry":{"type":"Point","coordinates":[-0.321788,49.244213]},"properties":{"stop_id":"ARCOM@BIE007","stop_code":null,"stop_name":"Bi\u00e9ville Ch\u00e2teau","stop_desc":null,"zone_id":null,"stop_url":null,"location_type":"1","parent_station":null,"stop_timezone":null,"wheelchair_boarding":"2"}},{"type":"Feature","geometry":{"type":"Point","coordinates":[-0.474474,49.211517]},"properties":{"stop_id":"ARCOM@ROT002","stop_code":null,"stop_name":"Rots Eglise","stop_desc":null,"zone_id":null,"stop_url":null,"location_type":"1","parent_station":null,"stop_timezone":null,"wheelchair_boarding":"2"}},{"type":"Feature","geometry":{"type":"Point","coordinates":[-0.512923,49.201138]},"properties":{"stop_id":"ARCOM@SMA022","stop_code":null,"stop_name":"Norrey Calvaire","stop_desc":null,"zone_id":null,"stop_url":null,"location_type":"1","parent_station":null,"stop_timezone":null,"wheelchair_boarding":"2"}},{"type":"Feature","geometry":{"type":"Point","coordinates":[-0.478277,49.199303]},"properties":{"stop_id":"COM_rotbo01","stop_code":null,"stop_name":"Rots Bourg","stop_desc":null,"zone_id":null,"stop_url":null,"location_type":"1","parent_station":null,"stop_timezone":null,"wheelchair_boarding":"2"}},{"type":"Feature","geometry":{"type":"Point","coordinates":[-0.459349,49.228394]},"properties":{"stop_id":"COM_rosel01","stop_code":null,"stop_name":"Rosel Bourg","stop_desc":null,"zone_id":null,"stop_url":null,"location_type":"1","parent_station":null,"stop_timezone":null,"wheelchair_boarding":"2"}},{"type":"Feature","geometry":{"type":"Point","coordinates":[-0.369842,49.18898]},"properties":{"stop_id":"COM_rubos02_1","stop_code":null,"stop_name":"Jardin des Plantes","stop_desc":null,"zone_id":null,"stop_url":null,"location_type":"1","parent_station":null,"stop_timezone":null,"wheelchair_boarding":"2"}},{"type":"Feature","geometry":{"type":"Point","coordinates":[-0.357638,49.16926]},"properties":{"stop_id":"COM_civa02_1","stop_code":null,"stop_name":"Porte Millet","stop_desc":null,"zone_id":null,"stop_url":null,"location_type":"1","parent_station":null,"stop_timezone":null,"wheelchair_boarding":"2"}},{"type":"Feature","geometry":{"type":"Point","coordinates":[-0.436066,49.216656]},"properties":{"stop_id":"1150864","stop_code":null,"stop_name":"Gruchy","stop_desc":null,"zone_id":null,"stop_url":null,"location_type":"1","parent_station":null,"stop_timezone":null,"wheelchair_boarding":"2"}},{"type":"Feature","geometry":{"type":"Point","coordinates":[-0.390453,49.202354]},"properties":{"stop_id":"COM_montg02","stop_code":null,"stop_name":"Montgomery","stop_desc":null,"zone_id":null,"stop_url":null,"location_type":"1","parent_station":null,"stop_timezone":null,"wheelchair_boarding":"2"}},{"type":"Feature","geometry":{"type":"Point","coordinates":[-0.459618,49.257984]},"properties":{"stop_id":"COM_cath01","stop_code":null,"stop_name":"Thaon Calvaire","stop_desc":null,"zone_id":null,"stop_url":null,"location_type":"1","parent_station":null,"stop_timezone":null,"wheelchair_boarding":"2"}},{"type":"Feature","geometry":{"type":"Point","coordinates":[-0.415331,49.18834]},"properties":{"stop_id":"1150282","stop_code":null,"stop_name":"Route de Bayeux","stop_desc":null,"zone_id":null,"stop_url":null,"location_type":"1","parent_station":null,"stop_timezone":null,"wheelchair_boarding":"2"}},{"type":"Feature","geometry":{"type":"Point","coordinates":[-0.284331,49.190895]},"properties":{"stop_id":"COM_jacl01","stop_code":null,"stop_name":"Sid\u00e9rurgie","stop_desc":null,"zone_id":null,"stop_url":null,"location_type":"1","parent_station":null,"stop_timezone":null,"wheelchair_boarding":"2"}},{"type":"Feature","geometry":{"type":"Point","coordinates":[-0.294404,49.236034]},"properties":{"stop_id":"COM_merc02","stop_code":null,"stop_name":"Merci\u00e8res","stop_desc":null,"zone_id":null,"stop_url":null,"location_type":"1","parent_station":null,"stop_timezone":null,"wheelchair_boarding":"2"}},{"type":"Feature","geometry":{"type":"Point","coordinates":[-0.289107,49.189304]},"properties":{"stop_id":"COM_meta01","stop_code":null,"stop_name":"Jardins de Clop\u00e9e","stop_desc":null,"zone_id":null,"stop_url":null,"location_type":"1","parent_station":null,"stop_timezone":null,"wheelchair_boarding":"2"}},{"type":"Feature","geometry":{"type":"Point","coordinates":[-0.43785,49.187103]},"properties":{"stop_id":"COM_qudv02","stop_code":null,"stop_name":"Les Vall\u00e9es","stop_desc":null,"zone_id":null,"stop_url":null,"location_type":"1","parent_station":null,"stop_timezone":null,"wheelchair_boarding":"2"}},{"type":"Feature","geometry":{"type":"Point","coordinates":[-0.517963,49.241768]},"properties":{"stop_id":"COM_cach03","stop_code":null,"stop_name":"Cacharat","stop_desc":null,"zone_id":null,"stop_url":null,"location_type":"1","parent_station":null,"stop_timezone":null,"wheelchair_boarding":"2"}},{"type":"Feature","geometry":{"type":"Point","coordinates":[-0.558972,49.23252]},"properties":{"stop_id":"COM_scgt01","stop_code":null,"stop_name":"Sainte-Croix","stop_desc":null,"zone_id":null,"stop_url":null,"location_type":"1","parent_station":null,"stop_timezone":null,"wheelchair_boarding":"2"}},{"type":"Feature","geometry":{"type":"Point","coordinates":[-0.361108,49.152924]},"properties":{"stop_id":"COM_zac01","stop_code":null,"stop_name":"Hauts de l'Orne","stop_desc":null,"zone_id":null,"stop_url":null,"location_type":"1","parent_station":null,"stop_timezone":null,"wheelchair_boarding":"2"}},{"type":"Feature","geometry":{"type":"Point","coordinates":[-0.319828,49.28749]},"properties":{"stop_id":"COM_lama02","stop_code":null,"stop_name":"La Marque","stop_desc":null,"zone_id":null,"stop_url":null,"location_type":"1","parent_station":null,"stop_timezone":null,"wheelchair_boarding":"2"}},{"type":"Feature","geometry":{"type":"Point","coordinates":[-0.363054,49.180508]},"properties":{"stop_id":"COM_th32","stop_code":null,"stop_name":"Th\u00e9\u00e2tre Quai 3","stop_desc":null,"zone_id":null,"stop_url":null,"location_type":"1","parent_station":null,"stop_timezone":null,"wheelchair_boarding":"2"}},{"type":"Feature","geometry":{"type":"Point","coordinates":[-0.359426,49.190056]},"properties":{"stop_id":"COM_deli12","stop_code":null,"stop_name":"D\u00e9livrande","stop_desc":null,"zone_id":null,"stop_url":null,"location_type":"1","parent_station":null,"stop_timezone":null,"wheelchair_boarding":"2"}},{"type":"Feature","geometry":{"type":"Point","coordinates":[-0.303747,49.19155]},"properties":{"stop_id":"COM_grha01","stop_code":null,"stop_name":"Grande Halle","stop_desc":null,"zone_id":null,"stop_url":null,"location_type":"1","parent_station":null,"stop_timezone":null,"wheelchair_boarding":"2"}},{"type":"Feature","geometry":{"type":"Point","coordinates":[-0.362708,49.180454]},"properties":{"stop_id":"COM_th91","stop_code":null,"stop_name":"Th\u00e9\u00e2tre Quai 1","stop_desc":null,"zone_id":null,"stop_url":null,"location_type":"1","parent_station":null,"stop_timezone":null,"wheelchair_boarding":"2"}},{"type":"Feature","geometry":{"type":"Point","coordinates":[-0.370537,49.181454]},"properties":{"stop_id":"COM_hdvc02","stop_code":null,"stop_name":"H\u00f4tel de Ville Quai 2","stop_desc":null,"zone_id":null,"stop_url":null,"location_type":"1","parent_station":null,"stop_timezone":null,"wheelchair_boarding":"2"}},{"type":"Feature","geometry":{"type":"Point","coordinates":[-0.415603,49.237255]},"properties":{"stop_id":"COM_norv02","stop_code":null,"stop_name":"Norv\u00e8ge","stop_desc":null,"zone_id":null,"stop_url":null,"location_type":"1","parent_station":null,"stop_timezone":null,"wheelchair_boarding":"2"}},{"type":"Feature","geometry":{"type":"Point","coordinates":[-0.398452,49.18548]},"properties":{"stop_id":"COM_nior01","stop_code":null,"stop_name":"Nicolas Oresme","stop_desc":null,"zone_id":null,"stop_url":null,"location_type":"1","parent_station":null,"stop_timezone":null,"wheelchair_boarding":"2"}},{"type":"Feature","geometry":{"type":"Point","coordinates":[-0.266067,49.181755]},"properties":{"stop_id":"peva02","stop_code":null,"stop_name":"Petit Vallon","stop_desc":null,"zone_id":null,"stop_url":null,"location_type":"0","parent_station":"COM_peva01","stop_timezone":null,"wheelchair_boarding":"2"}},{"type":"Feature","geometry":{"type":"Point","coordinates":[-0.265962,49.182404]},"properties":{"stop_id":"peva01","stop_code":null,"stop_name":"Petit Vallon","stop_desc":null,"zone_id":null,"stop_url":null,"location_type":"0","parent_station":"COM_peva01","stop_timezone":null,"wheelchair_boarding":"2"}},{"type":"Feature","geometry":{"type":"Point","coordinates":[-0.415354,49.188374]},"properties":{"stop_id":"rbay02","stop_code":"rbay02","stop_name":"Route de Bayeux","stop_desc":"Route de Bayeux","zone_id":null,"stop_url":null,"location_type":"0","parent_station":"1150282","stop_timezone":null,"wheelchair_boarding":"2"}},{"type":"Feature","geometry":{"type":"Point","coordinates":[-0.363016,49.17813]},"properties":{"stop_id":"hipp02","stop_code":"C021B","stop_name":"Hippodrome","stop_desc":"Hippodrome","zone_id":null,"stop_url":null,"location_type":"0","parent_station":"ARCOM@C021","stop_timezone":null,"wheelchair_boarding":"2"}},{"type":"Feature","geometry":{"type":"Point","coordinates":[-0.388847,49.17657]},"properties":{"stop_id":"euma01","stop_code":null,"stop_name":"Eug\u00e8ne Ma\u00ebs","stop_desc":null,"zone_id":null,"stop_url":null,"location_type":"0","parent_station":"COM_euma02","stop_timezone":null,"wheelchair_boarding":"2"}},{"type":"Feature","geometry":{"type":"Point","coordinates":[-0.396876,49.180794]},"properties":{"stop_id":"stor01","stop_code":null,"stop_name":"Stade d'Ornano","stop_desc":null,"zone_id":null,"stop_url":null,"location_type":"0","parent_station":"COM_stor02","stop_timezone":null,"wheelchair_boarding":"2"}},{"type":"Feature","geometry":{"type":"Point","coordinates":[-0.326227,49.173504]},"properties":{"stop_id":"chrm01","stop_code":"chrm01","stop_name":"Charmettes","stop_desc":"Charmettes","zone_id":null,"stop_url":null,"location_type":"0","parent_station":"1150749","stop_timezone":null,"wheelchair_boarding":"2"}},{"type":"Feature","geometry":{"type":"Point","coordinates":[-0.304905,49.23231]},"properties":{"stop_id":"volt01","stop_code":null,"stop_name":"Voltaire","stop_desc":null,"zone_id":null,"stop_url":null,"location_type":"0","parent_station":"COM_volt02","stop_timezone":null,"wheelchair_boarding":"2"}},{"type":"Feature","geometry":{"type":"Point","coordinates":[-0.270013,49.178165]},"properties":{"stop_id":"demou02","stop_code":null,"stop_name":"D\u00e9mouville Mairie","stop_desc":null,"zone_id":null,"stop_url":null,"location_type":"0","parent_station":"COM_demou02_1","stop_timezone":null,"wheelchair_boarding":"2"}},{"type":"Feature","geometry":{"type":"Point","coordinates":[-0.279076,49.177887]},"properties":{"stop_id":"lite01","stop_code":null,"stop_name":"Lionel Terray","stop_desc":null,"zone_id":null,"stop_url":null,"location_type":"0","parent_station":"COM_lite01","stop_timezone":null,"wheelchair_boarding":"2"}},{"type":"Feature","geometry":{"type":"Point","coordinates":[-0.417174,49.201626]},"properties":{"stop_id":"cuss01","stop_code":null,"stop_name":"Cussy","stop_desc":null,"zone_id":null,"stop_url":null,"location_type":"0","parent_station":"COM_cuss02","stop_timezone":null,"wheelchair_boarding":"2"}},{"type":"Feature","geometry":{"type":"Point","coordinates":[-0.285167,49.183594]},"properties":{"stop_id":"cali02","stop_code":null,"stop_name":"Carrefour de la Libert\u00e9","stop_desc":null,"zone_id":null,"stop_url":null,"location_type":"0","parent_station":"COM_cali02","stop_timezone":null,"wheelchair_boarding":"2"}},{"type":"Feature","geometry":{"type":"Point","coordinates":[-0.305919,49.174007]},"properties":{"stop_id":"finl02","stop_code":null,"stop_name":"Finlande","stop_desc":null,"zone_id":null,"stop_url":null,"location_type":"0","parent_station":"COM_finl02","stop_timezone":null,"wheelchair_boarding":"2"}},{"type":"Feature","geometry":{"type":"Point","coordinates":[-0.306393,49.17497]},"properties":{"stop_id":"finl01","stop_code":null,"stop_name":"Finlande","stop_desc":null,"zone_id":null,"stop_url":null,"location_type":"0","parent_station":"COM_finl02","stop_timezone":null,"wheelchair_boarding":"2"}},{"type":"Feature","geometry":{"type":"Point","coordinates":[-0.399092,49.18435]},"properties":{"stop_id":"stpa02","stop_code":"stpa02","stop_name":"Coll\u00e8ge Saint-Paul","stop_desc":null,"zone_id":null,"stop_url":null,"location_type":"0","parent_station":"COM_stpa01","stop_timezone":null,"wheelchair_boarding":"2"}},{"type":"Feature","geometry":{"type":"Point","coordinates":[-0.393593,49.19288]},"properties":{"stop_id":"char22","stop_code":null,"stop_name":"Moli\u00e8re","stop_desc":null,"zone_id":null,"stop_url":null,"location_type":"0","parent_station":"COM_char02_1","stop_timezone":null,"wheelchair_boarding":"2"}},{"type":"Feature","geometry":{"type":"Point","coordinates":[-0.388705,49.17471]},"properties":{"stop_id":"ptve01","stop_code":"ptve01","stop_name":"Pont de Venoix","stop_desc":null,"zone_id":null,"stop_url":null,"location_type":"0","parent_station":"COM_ptve11","stop_timezone":null,"wheelchair_boarding":"2"}},{"type":"Feature","geometry":{"type":"Point","coordinates":[-0.29412,49.19817]},"properties":{"stop_id":"1151699","stop_code":"14CLB025A","stop_name":"Lazzaro","stop_desc":"Lazzaro","zone_id":null,"stop_url":null,"location_type":"0","parent_station":"COM_laza02_1","stop_timezone":null,"wheelchair_boarding":"2"}},{"type":"Feature","geometry":{"type":"Point","coordinates":[-0.412352,49.199535]},"properties":{"stop_id":"arde01","stop_code":null,"stop_name":"Ardenne","stop_desc":null,"zone_id":null,"stop_url":null,"location_type":"0","parent_station":"COM_arde11_1","stop_timezone":null,"wheelchair_boarding":"2"}},{"type":"Feature","geometry":{"type":"Point","coordinates":[-0.376592,49.206833]},"properties":{"stop_id":"ruti01","stop_code":null,"stop_name":"Tisserands","stop_desc":null,"zone_id":null,"stop_url":null,"location_type":"0","parent_station":"COM_ruti01","stop_timezone":null,"wheelchair_boarding":"2"}},{"type":"Feature","geometry":{"type":"Point","coordinates":[-0.35471,49.175404]},"properties":{"stop_id":"stmi01","stop_code":null,"stop_name":"Saint-Michel","stop_desc":null,"zone_id":null,"stop_url":null,"location_type":"0","parent_station":"COM_stmi02_1","stop_timezone":null,"wheelchair_boarding":"2"}},{"type":"Feature","geometry":{"type":"Point","coordinates":[-0.428069,49.205746]},"properties":{"stop_id":"rech01","stop_code":null,"stop_name":"R\u00e9sidence aux Champs","stop_desc":null,"zone_id":null,"stop_url":null,"location_type":"0","parent_station":"COM_rech02","stop_timezone":null,"wheelchair_boarding":"2"}},{"type":"Feature","geometry":{"type":"Point","coordinates":[-0.2821,49.181534]},"properties":{"stop_id":"magi01","stop_code":null,"stop_name":"Giberville Mairie","stop_desc":null,"zone_id":null,"stop_url":null,"location_type":"0","parent_station":"COM_magi01_1","stop_timezone":null,"wheelchair_boarding":"2"}},{"type":"Feature","geometry":{"type":"Point","coordinates":[-0.380337,49.172512]},"properties":{"stop_id":"pexn02","stop_code":"pexn02","stop_name":"Z\u00e9nith","stop_desc":"Z\u00e9nith","zone_id":null,"stop_url":null,"location_type":"0","parent_station":"ARCOM@C039","stop_timezone":null,"wheelchair_boarding":"2"}},{"type":"Feature","geometry":{"type":"Point","coordinates":[-0.400251,49.199696]},"properties":{"stop_id":"vibu11","stop_code":null,"stop_name":"Rue de Villons","stop_desc":null,"zone_id":null,"stop_url":null,"location_type":"0","parent_station":"COM_vibu02","stop_timezone":null,"wheelchair_boarding":"2"}},{"type":"Feature","geometry":{"type":"Point","coordinates":[-0.363331,49.179775]},"properties":{"stop_id":"cthe12","stop_code":null,"stop_name":"Th\u00e9\u00e2tre Quai 4","stop_desc":null,"zone_id":null,"stop_url":null,"location_type":"0","parent_station":"COM_cthe12","stop_timezone":null,"wheelchair_boarding":"2"}},{"type":"Feature","geometry":{"type":"Point","coordinates":[-0.448578,49.15635]},"properties":{"stop_id":"1153664","stop_code":"14VER006B","stop_name":"Verson centre","stop_desc":"Verson centre","zone_id":null,"stop_url":null,"location_type":"0","parent_station":"ARCOM@VER006","stop_timezone":null,"wheelchair_boarding":"2"}},{"type":"Feature","geometry":{"type":"Point","coordinates":[-0.370042,49.209873]},"properties":{"stop_id":"cpam01","stop_code":"cpam01","stop_name":"CPAM","stop_desc":"CPAM","zone_id":null,"stop_url":null,"location_type":"0","parent_station":"1150295","stop_timezone":null,"wheelchair_boarding":"2"}},{"type":"Feature","geometry":{"type":"Point","coordinates":[-0.323868,49.170048]},"properties":{"stop_id":"rtpa01","stop_code":"rtpa01","stop_name":"Route de Paris","stop_desc":"Route de Paris","zone_id":null,"stop_url":null,"location_type":"0","parent_station":"COM_rtpa02","stop_timezone":null,"wheelchair_boarding":"2"}},{"type":"Feature","geometry":{"type":"Point","coordinates":[-0.365714,49.179676]},"properties":{"stop_id":"ciga02","stop_code":null,"stop_name":"Espace Gardin","stop_desc":null,"zone_id":null,"stop_url":null,"location_type":"0","parent_station":"COM_ciga02","stop_timezone":null,"wheelchair_boarding":"2"}},{"type":"Feature","geometry":{"type":"Point","coordinates":[-0.392266,49.20279]},"properties":{"stop_id":"deba12","stop_code":null,"stop_name":"D\u00e9barquement","stop_desc":null,"zone_id":null,"stop_url":null,"location_type":"0","parent_station":"COM_deba11","stop_timezone":null,"wheelchair_boarding":"2"}},{"type":"Feature","geometry":{"type":"Point","coordinates":[-0.398159,49.19157]},"properties":{"stop_id":"coty22","stop_code":null,"stop_name":"Coty","stop_desc":null,"zone_id":null,"stop_url":null,"location_type":"0","parent_station":"COM_coty22_1","stop_timezone":null,"wheelchair_boarding":"2"}},{"type":"Feature","geometry":{"type":"Point","coordinates":[-0.323823,49.16996]},"properties":{"stop_id":"rtpa02","stop_code":"rtpa02","stop_name":"Route de Paris","stop_desc":"Route de Paris","zone_id":null,"stop_url":null,"location_type":"0","parent_station":"COM_rtpa02","stop_timezone":null,"wheelchair_boarding":"2"}},{"type":"Feature","geometry":{"type":"Point","coordinates":[-0.408449,49.19922]},"properties":{"stop_id":"chan01","stop_code":null,"stop_name":"Chanterie","stop_desc":null,"zone_id":null,"stop_url":null,"location_type":"0","parent_station":"COM_chan02_1","stop_timezone":null,"wheelchair_boarding":"2"}},{"type":"Feature","geometry":{"type":"Point","coordinates":[-0.317543,49.167675]},"properties":{"stop_id":"ccou01","stop_code":null,"stop_name":"Charles de Coulomb","stop_desc":null,"zone_id":null,"stop_url":null,"location_type":"0","parent_station":"COM_ccou02","stop_timezone":null,"wheelchair_boarding":"2"}},{"type":"Feature","geometry":{"type":"Point","coordinates":[-0.371713,49.185562]},"properties":{"stop_id":"plca02","stop_code":"plca02","stop_name":"Place du Canada","stop_desc":null,"zone_id":null,"stop_url":null,"location_type":"0","parent_station":"ARCOM@C111","stop_timezone":null,"wheelchair_boarding":"2"}},{"type":"Feature","geometry":{"type":"Point","coordinates":[-0.272343,49.288044]},"properties":{"stop_id":"rich02","stop_code":"rich02","stop_name":"Riva Charmettes","stop_desc":null,"zone_id":null,"stop_url":null,"location_type":"0","parent_station":"ARCOM@OUI023","stop_timezone":null,"wheelchair_boarding":"2"}},{"type":"Feature","geometry":{"type":"Point","coordinates":[-0.332771,49.20056]},"properties":{"stop_id":"mjc02","stop_code":null,"stop_name":"PAJ-MJC","stop_desc":null,"zone_id":null,"stop_url":null,"location_type":"0","parent_station":"COM_mjc01","stop_timezone":null,"wheelchair_boarding":"2"}},{"type":"Feature","geometry":{"type":"Point","coordinates":[-0.331974,49.202114]},"properties":{"stop_id":"cadi12","stop_code":null,"stop_name":"Caf\u00e9 des Images","stop_desc":null,"zone_id":null,"stop_url":null,"location_type":"0","parent_station":"COM_cadi14","stop_timezone":null,"wheelchair_boarding":"2"}},{"type":"Feature","geometry":{"type":"Point","coordinates":[-0.390833,49.17756]},"properties":{"stop_id":"stcme01","stop_code":null,"stop_name":"Stade C. Mercier","stop_desc":null,"zone_id":null,"stop_url":null,"location_type":"0","parent_station":"COM_stcme02","stop_timezone":null,"wheelchair_boarding":"2"}},{"type":"Feature","geometry":{"type":"Point","coordinates":[-0.38772,49.200626]},"properties":{"stop_id":"nash01","stop_code":null,"stop_name":"Nashville","stop_desc":null,"zone_id":null,"stop_url":null,"location_type":"0","parent_station":"COM_nash02","stop_timezone":null,"wheelchair_boarding":"2"}},{"type":"Feature","geometry":{"type":"Point","coordinates":[-0.286724,49.235947]},"properties":{"stop_id":"nled02","stop_code":null,"stop_name":"Lynton Lynmouth","stop_desc":null,"zone_id":null,"stop_url":null,"location_type":"0","parent_station":"COM_nled01","stop_timezone":null,"wheelchair_boarding":"2"}},{"type":"Feature","geometry":{"type":"Point","coordinates":[-0.261832,49.284542]},"properties":{"stop_id":"rice02","stop_code":"rice02","stop_name":"Riva Centre","stop_desc":null,"zone_id":null,"stop_url":null,"location_type":"0","parent_station":"COM_rice02_1","stop_timezone":null,"wheelchair_boarding":"2"}},{"type":"Feature","geometry":{"type":"Point","coordinates":[-0.358804,49.184452]},"properties":{"stop_id":"tl_4","stop_code":null,"stop_name":"Tour Leroy","stop_desc":null,"zone_id":null,"stop_url":null,"location_type":"0","parent_station":"1176780","stop_timezone":null,"wheelchair_boarding":"2"}},{"type":"Feature","geometry":{"type":"Point","coordinates":[-0.283385,49.23912]},"properties":{"stop_id":"chat01","stop_code":"chat01","stop_name":"B\u00e9nouville Ch\u00e2teau","stop_desc":null,"zone_id":null,"stop_url":null,"location_type":"0","parent_station":"COM_chat02","stop_timezone":null,"wheelchair_boarding":"2"}},{"type":"Feature","geometry":{"type":"Point","coordinates":[-0.347262,49.199303]},"properties":{"stop_id":"ph01","stop_code":null,"stop_name":"Pierre Heuz\u00e9","stop_desc":null,"zone_id":null,"stop_url":null,"location_type":"0","parent_station":"COM_ph02_2","stop_timezone":null,"wheelchair_boarding":"2"}},{"type":"Feature","geometry":{"type":"Point","coordinates":[-0.394794,49.201553]},"properties":{"stop_id":"unic02","stop_code":null,"stop_name":"Unicit\u00e9","stop_desc":null,"zone_id":null,"stop_url":null,"location_type":"0","parent_station":"COM_unic01","stop_timezone":null,"wheelchair_boarding":"2"}},{"type":"Feature","geometry":{"type":"Point","coordinates":[-0.29179,49.16012]},"properties":{"stop_id":"1152841","stop_code":"14MON023A","stop_name":"Centre commercial Sud","stop_desc":"Centre commercial","zone_id":null,"stop_url":null,"location_type":"0","parent_station":"1150743","stop_timezone":null,"wheelchair_boarding":"2"}},{"type":"Feature","geometry":{"type":"Point","coordinates":[-0.434882,49.185745]},"properties":{"stop_id":"lpla02","stop_code":"lpla02","stop_name":"La Plaine","stop_desc":null,"zone_id":null,"stop_url":null,"location_type":"0","parent_station":"COM_lpla11","stop_timezone":null,"wheelchair_boarding":"2"}},{"type":"Feature","geometry":{"type":"Point","coordinates":[-0.34173,49.156788]},"properties":{"stop_id":"con01","stop_code":null,"stop_name":"Concorde","stop_desc":null,"zone_id":null,"stop_url":null,"location_type":"0","parent_station":"COM_con01","stop_timezone":null,"wheelchair_boarding":"2"}},{"type":"Feature","geometry":{"type":"Point","coordinates":[-0.350256,49.20963]},"properties":{"stop_id":"lefo02","stop_code":null,"stop_name":"L\u00e9on Foucault","stop_desc":null,"zone_id":null,"stop_url":null,"location_type":"0","parent_station":"COM_lefo02","stop_timezone":null,"wheelchair_boarding":"2"}},{"type":"Feature","geometry":{"type":"Point","coordinates":[-0.351821,49.208847]},"properties":{"stop_id":"cam502","stop_code":null,"stop_name":"Campus 5","stop_desc":null,"zone_id":null,"stop_url":null,"location_type":"0","parent_station":"COM_cam502_1","stop_timezone":null,"wheelchair_boarding":"2"}},{"type":"Feature","geometry":{"type":"Point","coordinates":[-0.304728,49.29435]},"properties":{"stop_id":"hmmi01","stop_code":null,"stop_name":"Minotaure","stop_desc":null,"zone_id":null,"stop_url":null,"location_type":"0","parent_station":"COM_hmmi02","stop_timezone":null,"wheelchair_boarding":"2"}},{"type":"Feature","geometry":{"type":"Point","coordinates":[-0.301737,49.274117]},"properties":{"stop_id":"piep02","stop_code":"piep02","stop_name":"Pi\u00e9plu","stop_desc":null,"zone_id":null,"stop_url":null,"location_type":"0","parent_station":"ARCOM@COC020","stop_timezone":null,"wheelchair_boarding":"2"}},{"type":"Feature","geometry":{"type":"Point","coordinates":[-0.35214,49.206715]},"properties":{"stop_id":"avmo22","stop_code":"avmo22","stop_name":"Morice","stop_desc":null,"zone_id":null,"stop_url":null,"location_type":"0","parent_station":"COM_avmo21","stop_timezone":null,"wheelchair_boarding":"2"}},{"type":"Feature","geometry":{"type":"Point","coordinates":[-0.322811,49.28312]},"properties":{"stop_id":"jaro01","stop_code":null,"stop_name":"Jardins Romain","stop_desc":null,"zone_id":null,"stop_url":null,"location_type":"0","parent_station":"COM_jaro01","stop_timezone":null,"wheelchair_boarding":"2"}},{"type":"Feature","geometry":{"type":"Point","coordinates":[-0.324254,49.300327]},"properties":{"stop_id":"list02","stop_code":null,"stop_name":"Lion Stade","stop_desc":null,"zone_id":null,"stop_url":null,"location_type":"0","parent_station":"COM_list01","stop_timezone":null,"wheelchair_boarding":"2"}},{"type":"Feature","geometry":{"type":"Point","coordinates":[-0.30137,49.152405]},"properties":{"stop_id":"newt02","stop_code":null,"stop_name":"Newton","stop_desc":null,"zone_id":null,"stop_url":null,"location_type":"0","parent_station":"COM_newt02","stop_timezone":null,"wheelchair_boarding":"2"}},{"type":"Feature","geometry":{"type":"Point","coordinates":[-0.342802,49.152546]},"properties":{"stop_id":"nomad7","stop_code":"nomad7","stop_name":"Charit\u00e9","stop_desc":"Charite","zone_id":null,"stop_url":null,"location_type":"0","parent_station":"COM_IFS025B","stop_timezone":null,"wheelchair_boarding":"2"}},{"type":"Feature","geometry":{"type":"Point","coordinates":[-0.340195,49.14803]},"properties":{"stop_id":"poes01","stop_code":"poes01","stop_name":"Porte d'Espagne","stop_desc":"Porte d'espagne","zone_id":null,"stop_url":null,"location_type":"0","parent_station":"ARCOM@IFS022","stop_timezone":null,"wheelchair_boarding":"2"}},{"type":"Feature","geometry":{"type":"Point","coordinates":[-0.332964,49.16009]},"properties":{"stop_id":"pogr01","stop_code":null,"stop_name":"Pommier Gris","stop_desc":null,"zone_id":null,"stop_url":null,"location_type":"0","parent_station":"COM_pogr02","stop_timezone":null,"wheelchair_boarding":"2"}},{"type":"Feature","geometry":{"type":"Point","coordinates":[-0.54232,49.211376]},"properties":{"stop_id":"pubb02","stop_code":"pubb02","stop_name":"Putot Bourg","stop_desc":null,"zone_id":null,"stop_url":null,"location_type":"0","parent_station":"COM_pubb02","stop_timezone":null,"wheelchair_boarding":"2"}},{"type":"Feature","geometry":{"type":"Point","coordinates":[-0.366733,49.181892]},"properties":{"stop_id":"ecuy01","stop_code":null,"stop_name":"Ecuy\u00e8re","stop_desc":null,"zone_id":null,"stop_url":null,"location_type":"0","parent_station":"COM_ecuy01","stop_timezone":null,"wheelchair_boarding":"2"}},{"type":"Feature","geometry":{"type":"Point","coordinates":[-0.312366,49.15434]},"properties":{"stop_id":"chpp01","stop_code":null,"stop_name":"Chappe","stop_desc":null,"zone_id":null,"stop_url":null,"location_type":"0","parent_station":"COM_chpp01","stop_timezone":null,"wheelchair_boarding":"2"}},{"type":"Feature","geometry":{"type":"Point","coordinates":[-0.350868,49.135757]},"properties":{"stop_id":"clss11","stop_code":"clss11","stop_name":"Coll\u00e8ge Senghor Quai 1","stop_desc":null,"zone_id":null,"stop_url":null,"location_type":"0","parent_station":"ARCOM@IFS013","stop_timezone":null,"wheelchair_boarding":"2"}},{"type":"Feature","geometry":{"type":"Point","coordinates":[-0.339623,49.162155]},"properties":{"stop_id":"coud01","stop_code":null,"stop_name":"Coudriers","stop_desc":null,"zone_id":null,"stop_url":null,"location_type":"0","parent_station":"COM_coud01","stop_timezone":null,"wheelchair_boarding":"2"}},{"type":"Feature","geometry":{"type":"Point","coordinates":[-0.346418,49.199043]},"properties":{"stop_id":"pihe22","stop_code":null,"stop_name":"Pierre Heuz\u00e9","stop_desc":null,"zone_id":null,"stop_url":null,"location_type":"0","parent_station":"COM_pihe12","stop_timezone":null,"wheelchair_boarding":"2"}},{"type":"Feature","geometry":{"type":"Point","coordinates":[-0.563841,49.227688]},"properties":{"stop_id":"1167388","stop_code":"14SCT010A","stop_name":"H\u00f4tel fortun\u00e9","stop_desc":null,"zone_id":null,"stop_url":null,"location_type":"0","parent_station":"COM_hofor01","stop_timezone":null,"wheelchair_boarding":"2"}},{"type":"Feature","geometry":{"type":"Point","coordinates":[-0.322312,49.175358]},"properties":{"stop_id":"moeg01","stop_code":null,"stop_name":"Mondeville Eglise","stop_desc":null,"zone_id":null,"stop_url":null,"location_type":"0","parent_station":"COM_moeg02","stop_timezone":null,"wheelchair_boarding":"2"}},{"type":"Feature","geometry":{"type":"Point","coordinates":[-0.347022,49.199173]},"properties":{"stop_id":"ph02","stop_code":null,"stop_name":"Pierre Heuz\u00e9","stop_desc":null,"zone_id":null,"stop_url":null,"location_type":"0","parent_station":"COM_ph02_2","stop_timezone":null,"wheelchair_boarding":"2"}},{"type":"Feature","geometry":{"type":"Point","coordinates":[-0.321963,49.175316]},"properties":{"stop_id":"moeg02","stop_code":null,"stop_name":"Mondeville Eglise","stop_desc":null,"zone_id":null,"stop_url":null,"location_type":"0","parent_station":"COM_moeg02","stop_timezone":null,"wheelchair_boarding":"2"}},{"type":"Feature","geometry":{"type":"Point","coordinates":[-0.44103,49.187332]},"properties":{"stop_id":"ceaq01","stop_code":"ceaq01","stop_name":"Centre Aquatique","stop_desc":null,"zone_id":null,"stop_url":null,"location_type":"0","parent_station":"COM_ceaq11_1","stop_timezone":null,"wheelchair_boarding":"2"}},{"type":"Feature","geometry":{"type":"Point","coordinates":[-0.312082,49.168324]},"properties":{"stop_id":"dub01","stop_code":"dub01","stop_name":"Dublin","stop_desc":null,"zone_id":null,"stop_url":null,"location_type":"0","parent_station":"COM_dub01","stop_timezone":null,"wheelchair_boarding":"2"}},{"type":"Feature","geometry":{"type":"Point","coordinates":[-0.47189,49.19938]},"properties":{"stop_id":"roct01","stop_code":"roct01","stop_name":"Rots Centre","stop_desc":null,"zone_id":null,"stop_url":null,"location_type":"0","parent_station":"COM_roct02","stop_timezone":null,"wheelchair_boarding":"2"}},{"type":"Feature","geometry":{"type":"Point","coordinates":[-0.520001,49.17064]},"properties":{"stop_id":"lapo01","stop_code":"lapo01","stop_name":"La Pommeraie","stop_desc":null,"zone_id":null,"stop_url":null,"location_type":"0","parent_station":"COM_lapo01","stop_timezone":null,"wheelchair_boarding":"2"}},{"type":"Feature","geometry":{"type":"Point","coordinates":[-0.322439,49.16015]},"properties":{"stop_id":"ampe02","stop_code":"ampe02","stop_name":"Amp\u00e8re","stop_desc":null,"zone_id":null,"stop_url":null,"location_type":"0","parent_station":"COM_ampe01","stop_timezone":null,"wheelchair_boarding":"2"}},{"type":"Feature","geometry":{"type":"Point","coordinates":[-0.366642,49.145515]},"properties":{"stop_id":"noka11","stop_code":null,"stop_name":"Normandika","stop_desc":null,"zone_id":null,"stop_url":null,"location_type":"0","parent_station":"COM_noka12","stop_timezone":null,"wheelchair_boarding":"2"}},{"type":"Feature","geometry":{"type":"Point","coordinates":[-0.372971,49.140404]},"properties":{"stop_id":"suno02","stop_code":null,"stop_name":"Suisse Normande","stop_desc":null,"zone_id":null,"stop_url":null,"location_type":"0","parent_station":"COM_suno01","stop_timezone":null,"wheelchair_boarding":"2"}},{"type":"Feature","geometry":{"type":"Point","coordinates":[-0.489376,49.18203]},